[{"id":3384,"iataCode":"ATL","icaoCode":"KATL","airportName":"Hartsfield Jackson Atlanta International Airport","city":"Atlanta","country":"United States","countryCode":"US","type":"large_airport","scheduledService":true,"latitude":33.6367,"longitude":-84.428101,"keywords":"","score":2002475},{"id":3754,"iataCode":"ORD","icaoCode":"KORD","airportName":"Chicago O'Hare International Airport","city":"Chicago","country":"United States","countryCode":"US","type":"large_airport","scheduledService":true,"latitude":41.9786,"longitude":-87.9048,"keywords":"CHI, Orchard Place","score":1503175},{"id":3632,"iataCode":"LAX","icaoCode":"KLAX","airportName":"Los Angeles International Airport","city":"Los Angeles","country":"United States","countryCode":"US","type":"large_airport","scheduledService":true,"latitude":33.942501,"longitude":-118.407997,"keywords":"Tom Bradley","score":1335475},{"id":2434,"iataCode":"LHR","icaoCode":"EGLL","airportName":"London Heathrow Airport","city":"London","country":"United Kingdom","countryCode":"GB","type":"large_airport","scheduledService":true,"latitude":51.470748,"longitude":-0.459909,"keywords":"LON, Londres","score":1251675},{"id":3488,"iataCode":"DFW","icaoCode":"KDFW","airportName":"Dallas Fort Worth International Airport","city":"Dallas-Fort Worth","country":"United States","countryCode":"US","type":"large_airport","scheduledService":true,"latitude":32.896801,"longitude":-97.038002,"keywords":"QDF","score":1203175},{"id":5627,"iataCode":"HND","icaoCode":"RJTT","airportName":"Tokyo Haneda International Airport","city":"Tokyo","country":"Japan","countryCode":"JP","type":"large_airport","scheduledService":true,"latitude":35.549678,"longitude":139.786958,"keywords":"TYO, Haneda, 羽田空港, 東京国際空港, 東京, 東京都","score":1168475},{"id":2212,"iataCode":"FRA","icaoCode":"EDDF","airportName":"Frankfurt Main Airport","city":"Frankfurt am Main","country":"Germany","countryCode":"DE","type":"large_airport","scheduledService":true,"latitude":50.026706,"longitude":8.55835,"keywords":"EDAF, Frankfurt am Main, Frankfurt Main, Rhein-Main Air Base, Zeppelinheim","score":1144675},{"id":4185,"iataCode":"CDG","icaoCode":"LFPG","airportName":"Charles de Gaulle International Airport","city":"Paris (Roissy-en-France, Val-d'Oise)","country":"France","countryCode":"FR","type":"large_airport","scheduledService":true,"latitude":49.00896,"longitude":2.554117,"keywords":"PAR, Aéroport Roissy-Charles de Gaulle, Roissy Airport","score":1127475},{"id":3878,"iataCode":"SFO","icaoCode":"KSFO","airportName":"San Francisco International Airport","city":"San Francisco","country":"United States","countryCode":"US","type":"large_airport","scheduledService":true,"latitude":37.619806,"longitude":-122.374821,"keywords":"QSF, QBA","score":1112475},{"id":3486,"iataCode":"DEN","icaoCode":"KDEN","airportName":"Denver International Airport","city":"Denver","country":"United States","countryCode":"US","type":"large_airport","scheduledService":true,"latitude":39.860027,"longitude":-104.673792,"keywords":"DVX, KVDX","score":1103275},{"id":2513,"iataCode":"AMS","icaoCode":"EHAM","airportName":"Amsterdam Airport Schiphol","city":"Amsterdam","country":"Netherlands","countryCode":"NL","type":"large_airport","scheduledService":true,"latitude":52.308601,"longitude":4.76389,"keywords":"","score":1093275},{"id":3709,"iataCode":"MSP","icaoCode":"KMSP","airportName":"Minneapolis–Saint Paul International Airport / Wold–Chamberlain Field","city":"Minneapolis","country":"United States","countryCode":"US","type":"large_airport","scheduledService":true,"latitude":44.880081,"longitude":-93.221741,"keywords":"","score":1085275},{"id":3497,"iataCode":"DTW","icaoCode":"KDTW","airportName":"Detroit Metropolitan Wayne County Airport","city":"Detroit","country":"United States","countryCode":"US","type":"large_airport","scheduledService":true,"latitude":42.21377,"longitude":-83.353786,"keywords":"DTT, Detroit Metro Airport","score":1079375},{"id":3685,"iataCode":"MIA","icaoCode":"KMIA","airportName":"Miami International Airport","city":"Miami","country":"United States","countryCode":"US","type":"large_airport","scheduledService":true,"latitude":25.796011,"longitude":-80.289751,"keywords":"MFW, South Florida, Wilcox Field, Pan American Field","score":1073075},{"id":3631,"iataCode":"LAS","icaoCode":"KLAS","airportName":"Harry Reid International Airport","city":"Las Vegas","country":"United States","countryCode":"US","type":"large_airport","scheduledService":true,"latitude":36.083361,"longitude":-115.151817,"keywords":"McCarran International Airport","score":1068475},{"id":3521,"iataCode":"EWR","icaoCode":"KEWR","airportName":"Newark Liberty International Airport","city":"Newark","country":"United States","countryCode":"US","type":"large_airport","scheduledService":true,"latitude":40.6894,"longitude":-74.170545,"keywords":"Manhattan, New York City, NYC","score":1064475},{"id":3772,"iataCode":"PHX","icaoCode":"KPHX","airportName":"Phoenix Sky Harbor International Airport","city":"Phoenix","country":"United States","countryCode":"US","type":"large_airport","scheduledService":true,"latitude":33.435302,"longitude":-112.005905,"keywords":"","score":1060875},{"id":3604,"iataCode":"IAH","icaoCode":"KIAH","airportName":"George Bush Intercontinental Airport","city":"Houston","country":"United States","countryCode":"US","type":"large_airport","scheduledService":true,"latitude":29.9844,"longitude":-95.3414,"keywords":"QHO","score":1055675},{"id":3622,"iataCode":"JFK","icaoCode":"KJFK","airportName":"John F. Kennedy International Airport","city":"New York","country":"United States","countryCode":"US","type":"large_airport","scheduledService":true,"latitude":40.639447,"longitude":-73.779317,"keywords":"Manhattan, New York City, NYC, Idlewild, IDL, KIDL","score":1052075},{"id":2429,"iataCode":"LGW","icaoCode":"EGKK","airportName":"London Gatwick Airport","city":"London","country":"United Kingdom","countryCode":"GB","type":"large_airport","scheduledService":true,"latitude":51.148744,"longitude":-0.185739,"keywords":"LON, Crawley, Charlwood","score":1049275},{"id":3905,"iataCode":"STL","icaoCode":"KSTL","airportName":"St. Louis Lambert International Airport","city":"St Louis","country":"United States","countryCode":"US","type":"large_airport","scheduledService":true,"latitude":38.748697,"longitude":-90.370003,"keywords":"Lambert St Louis","score":1047075},{"id":26535,"iataCode":"HKG","icaoCode":"VHHH","airportName":"Hong Kong International Airport","city":"Hong Kong","country":"Hong Kong","countryCode":"HK","type":"large_airport","scheduledService":true,"latitude":22.31184,"longitude":113.914862,"keywords":"Chek Lap Kok Airport, 赤鱲角機場","score":1044675},{"id":3670,"iataCode":"MCO","icaoCode":"KMCO","airportName":"Orlando International Airport","city":"Orlando","country":"United States","countryCode":"US","type":"large_airport","scheduledService":true,"latitude":28.429399490356445,"longitude":-81.30899810791016,"keywords":"Disney World,Epcot Center","score":1044075},{"id":4019,"iataCode":"MAD","icaoCode":"LEMD","airportName":"Adolfo Suárez Madrid–Barajas Airport","city":"Madrid","country":"Spain","countryCode":"ES","type":"large_airport","scheduledService":true,"latitude":40.493407,"longitude":-3.572249,"keywords":"Leganés, Madrid Barajas International Airport","score":1041675},{"id":1990,"iataCode":"YYZ","icaoCode":"CYYZ","airportName":"Toronto Pearson International Airport","city":"Toronto","country":"Canada","countryCode":"CA","type":"large_airport","scheduledService":true,"latitude":43.675935,"longitude":-79.629421,"keywords":"YTO, Toronto International Airport, Malton","score":1040275},{"id":3422,"iataCode":"BOS","icaoCode":"KBOS","airportName":"Boston Logan International Airport","city":"Boston","country":"United States","countryCode":"US","type":"large_airport","scheduledService":true,"latitude":42.36197,"longitude":-71.0079,"keywords":"General Edward Lawrence Logan International Airport","score":1035875},{"id":26887,"iataCode":"SIN","icaoCode":"WSSS","airportName":"Singapore Changi Airport","city":"Singapore","country":"Singapore","countryCode":"SG","type":"large_airport","scheduledService":true,"latitude":1.35019,"longitude":103.994003,"keywords":"RAF Changi","score":1034575},{"id":5531,"iataCode":"NRT","icaoCode":"RJAA","airportName":"Narita International Airport","city":"Narita","country":"Japan","countryCode":"JP","type":"large_airport","scheduledService":true,"latitude":35.76858,"longitude":140.388714,"keywords":"TYO, Tokyo, Tokyo Narita Airport, New Tokyo International Airport, 成田国際空港, 成田空港, 東京都, 東京成田","score":1033675},{"id":4189,"iataCode":"ORY","icaoCode":"LFPO","airportName":"Paris-Orly Airport","city":"Paris (Orly, Val-de-Marne)","country":"France","countryCode":"FR","type":"large_airport","scheduledService":true,"latitude":48.729499,"longitude":2.358963,"keywords":"","score":1032775},{"id":4372,"iataCode":"FCO","icaoCode":"LIRF","airportName":"Rome–Fiumicino Leonardo da Vinci International Airport","city":"Rome","country":"Italy","countryCode":"IT","type":"large_airport","scheduledService":true,"latitude":41.804532,"longitude":12.251998,"keywords":"ROM, Rome Fiumicino Airport, Fiumicino Airport","score":1031875},{"id":3771,"iataCode":"PHL","icaoCode":"KPHL","airportName":"Philadelphia International Airport","city":"Philadelphia","country":"United States","countryCode":"US","type":"large_airport","scheduledService":true,"latitude":39.871899,"longitude":-75.241096,"keywords":"","score":1031075},{"id":3643,"iataCode":"LGA","icaoCode":"KLGA","airportName":"LaGuardia Airport","city":"New York","country":"United States","countryCode":"US","type":"large_airport","scheduledService":true,"latitude":40.777199,"longitude":-73.872597,"keywords":"Manhattan, New York City, NYC, Glenn H. Curtiss Airport, North Beach Airport, La Guardia","score":1030575},{"id":3471,"iataCode":"CVG","icaoCode":"KCVG","airportName":"Cincinnati Northern Kentucky International Airport","city":"Cincinnati / Covington","country":"United States","countryCode":"US","type":"large_airport","scheduledService":true,"latitude":39.048801,"longitude":-84.667801,"keywords":"","score":1029475},{"id":5453,"iataCode":"HNL","icaoCode":"PHNL","airportName":"Daniel K. Inouye International Airport","city":"Honolulu, Oahu","country":"United States","countryCode":"US","type":"large_airport","scheduledService":true,"latitude":21.318387,"longitude":-157.92567,"keywords":"Hickam Air Force Base, HIK, PHIK, KHNL, Honolulu International","score":1029375},{"id":3457,"iataCode":"CLT","icaoCode":"KCLT","airportName":"Charlotte Douglas International Airport","city":"Charlotte","country":"United States","countryCode":"US","type":"large_airport","scheduledService":true,"latitude":35.2140007019043,"longitude":-80.94309997558594,"keywords":"","score":1028075},{"id":27145,"iataCode":"SYD","icaoCode":"YSSY","airportName":"Sydney Kingsford Smith International Airport","city":"Sydney (Mascot)","country":"Australia","countryCode":"AU","type":"large_airport","scheduledService":true,"latitude":-33.946098,"longitude":151.177002,"keywords":"Kingsford Smith, Mascot, RAAF Station Mascot","score":1027975},{"id":2218,"iataCode":"MUC","icaoCode":"EDDM","airportName":"Munich Airport","city":"Munich","country":"Germany","countryCode":"DE","type":"large_airport","scheduledService":true,"latitude":48.353802,"longitude":11.7861,"keywords":"Franz Josef Strauss Airport, Flughafen München Franz Josef Strauß","score":1026675},{"id":4505,"iataCode":"ZRH","icaoCode":"LSZH","airportName":"Zürich Airport","city":"Zurich","country":"Switzerland","countryCode":"CH","type":"large_airport","scheduledService":true,"latitude":47.458056,"longitude":8.548056,"keywords":"","score":1025475},{"id":4731,"iataCode":"MEX","icaoCode":"MMMX","airportName":"Mexico City Benito Juárez International Airport","city":"Mexico City","country":"Mexico","countryCode":"MX","type":"large_airport","scheduledService":true,"latitude":19.435822,"longitude":-99.07033,"keywords":"AICM, Ciudad de México","score":1025275},{"id":3887,"iataCode":"SLC","icaoCode":"KSLC","airportName":"Salt Lake City International Airport","city":"Salt Lake City","country":"United States","countryCode":"US","type":"large_airport","scheduledService":true,"latitude":40.78886,"longitude":-111.979866,"keywords":"","score":1025075},{"id":2155,"iataCode":"BRU","icaoCode":"EBBR","airportName":"Brussels Airport","city":"Zaventem","country":"Belgium","countryCode":"BE","type":"large_airport","scheduledService":true,"latitude":50.901402,"longitude":4.48444,"keywords":"Brussels National, Zaventem, EBMB","score":1024675},{"id":3602,"iataCode":"IAD","icaoCode":"KIAD","airportName":"Washington Dulles International Airport","city":"Dulles","country":"United States","countryCode":"US","type":"large_airport","scheduledService":true,"latitude":38.9445,"longitude":-77.455803,"keywords":"WAS","score":1023875},{"id":5536,"iataCode":"KIX","icaoCode":"RJBB","airportName":"Kansai International Airport","city":"Osaka","country":"Japan","countryCode":"JP","type":"large_airport","scheduledService":true,"latitude":34.427299,"longitude":135.244003,"keywords":"OSA","score":1023275},{"id":5564,"iataCode":"FUK","icaoCode":"RJFF","airportName":"Fukuoka Airport","city":"Fukuoka","country":"Japan","countryCode":"JP","type":"large_airport","scheduledService":true,"latitude":33.585899353027344,"longitude":130.4510040283203,"keywords":"Itazuke Air Base","score":1022275},{"id":3778,"iataCode":"PIT","icaoCode":"KPIT","airportName":"Pittsburgh International Airport","city":"Pittsburgh","country":"United States","countryCode":"US","type":"large_airport","scheduledService":true,"latitude":40.491501,"longitude":-80.232903,"keywords":"","score":1021875},{"id":27188,"iataCode":"PEK","icaoCode":"ZBAA","airportName":"Beijing Capital International Airport","city":"Beijing","country":"China","countryCode":"CN","type":"large_airport","scheduledService":true,"latitude":40.077349,"longitude":116.596702,"keywords":"BJS, Beijing, Peking, 北京, 北京首都国际机场, 北京首都机场, 北京机场","score":1021575},{"id":5544,"iataCode":"CTS","icaoCode":"RJCC","airportName":"New Chitose Airport","city":"Sapporo","country":"Japan","countryCode":"JP","type":"large_airport","scheduledService":true,"latitude":42.774753,"longitude":141.690414,"keywords":"新千歳空港","score":1021475},{"id":3435,"iataCode":"BWI","icaoCode":"KBWI","airportName":"Baltimore/Washington International Thurgood Marshall Airport","city":"Baltimore","country":"United States","countryCode":"US","type":"large_airport","scheduledService":true,"latitude":39.1754,"longitude":-76.668297,"keywords":"WAS, Friendship International","score":1021075},{"id":4004,"iataCode":"BCN","icaoCode":"LEBL","airportName":"Josep Tarradellas Barcelona-El Prat Airport","city":"Barcelona","country":"Spain","countryCode":"ES","type":"large_airport","scheduledService":true,"latitude":41.2971,"longitude":2.07846,"keywords":"El Prat Airport,Barcelona International,Josep Tarradellas Barcelona-El Prat Airport","score":1020675},{"id":2398,"iataCode":"MAN","icaoCode":"EGCC","airportName":"Manchester Airport","city":"Manchester, Greater Manchester","country":"United Kingdom","countryCode":"GB","type":"large_airport","scheduledService":true,"latitude":53.349375,"longitude":-2.279521,"keywords":"Ringway Airport, RAF Ringway","score":1020475},{"id":2542,"iataCode":"CPH","icaoCode":"EKCH","airportName":"Copenhagen Kastrup Airport","city":"Copenhagen","country":"Denmark","countryCode":"DK","type":"large_airport","scheduledService":true,"latitude":55.617900848389,"longitude":12.656000137329,"keywords":"København, Malmö","score":1020075},{"id":2701,"iataCode":"ARN","icaoCode":"ESSA","airportName":"Stockholm-Arlanda Airport","city":"Stockholm","country":"Sweden","countryCode":"SE","type":"large_airport","scheduledService":true,"latitude":59.64849,"longitude":17.928829,"keywords":"","score":1019975},{"id":4340,"iataCode":"MXP","icaoCode":"LIMC","airportName":"Milan Malpensa International Airport","city":"Ferno (VA)","country":"Italy","countryCode":"IT","type":"large_airport","scheduledService":true,"latitude":45.6306,"longitude":8.72811,"keywords":"MIL, Silvio Berlusconi","score":1019475},{"id":1941,"iataCode":"YVR","icaoCode":"CYVR","airportName":"Vancouver International Airport","city":"Vancouver","country":"Canada","countryCode":"CA","type":"large_airport","scheduledService":true,"latitude":49.193901,"longitude":-123.183998,"keywords":"","score":1018875},{"id":5528,"iataCode":"TPE","icaoCode":"RCTP","airportName":"Taiwan Taoyuan International Airport","city":"Taoyuan","country":"Taiwan","countryCode":"TW","type":"large_airport","scheduledService":true,"latitude":25.0777,"longitude":121.233002,"keywords":"Taoyuan County, Dayuan District. 臺灣桃園國際機場","score":1018675},{"id":2217,"iataCode":"DUS","icaoCode":"EDDL","airportName":"Düsseldorf Airport","city":"Düsseldorf","country":"Germany","countryCode":"DE","type":"large_airport","scheduledService":true,"latitude":51.289501,"longitude":6.76678,"keywords":"","score":1017675},{"id":26874,"iataCode":"KUL","icaoCode":"WMKK","airportName":"Kuala Lumpur International Airport","city":"Sepang","country":"Malaysia","countryCode":"MY","type":"large_airport","scheduledService":true,"latitude":2.74558,"longitude":101.709999,"keywords":"KLIA","score":1017575},{"id":3926,"iataCode":"TPA","icaoCode":"KTPA","airportName":"Tampa International Airport","city":"Tampa","country":"United States","countryCode":"US","type":"large_airport","scheduledService":true,"latitude":27.9755,"longitude":-82.533203,"keywords":"","score":1017475},{"id":3862,"iataCode":"SAN","icaoCode":"KSAN","airportName":"San Diego International Airport","city":"San Diego","country":"United States","countryCode":"US","type":"large_airport","scheduledService":true,"latitude":32.733601,"longitude":-117.190002,"keywords":"Lindbergh Field","score":1017175},{"id":5910,"iataCode":"GRU","icaoCode":"SBGR","airportName":"São Paulo/Guarulhos–Governor André Franco Montoro International Airport","city":"São Paulo","country":"Brazil","countryCode":"BR","type":"large_airport","scheduledService":true,"latitude":-23.431274,"longitude":-46.469954,"keywords":"Cumbica","score":1016675},{"id":3483,"iataCode":"DCA","icaoCode":"KDCA","airportName":"Ronald Reagan Washington National Airport","city":"Washington","country":"United States","countryCode":"US","type":"large_airport","scheduledService":true,"latitude":38.8521,"longitude":-77.037697,"keywords":"WAS","score":1016175},{"id":27225,"iataCode":"SHA","icaoCode":"ZSSS","airportName":"Shanghai Hongqiao International Airport","city":"Shanghai (Minhang)","country":"China","countryCode":"CN","type":"large_airport","scheduledService":true,"latitude":31.198104,"longitude":121.33426,"keywords":"上海, 上海虹桥, 上海虹桥国际机场","score":1016175},{"id":27066,"iataCode":"MEL","icaoCode":"YMML","airportName":"Melbourne Airport","city":"Melbourne","country":"Australia","countryCode":"AU","type":"large_airport","scheduledService":true,"latitude":-37.670732,"longitude":144.837898,"keywords":"Melbourne International, Tullamarine","score":1016075},{"id":3454,"iataCode":"CLE","icaoCode":"KCLE","airportName":"Cleveland Hopkins International Airport","city":"Cleveland","country":"United States","countryCode":"US","type":"large_airport","scheduledService":true,"latitude":41.411701,"longitude":-81.8498,"keywords":"","score":1015875},{"id":3768,"iataCode":"PDX","icaoCode":"KPDX","airportName":"Portland International Airport","city":"Portland","country":"United States","countryCode":"US","type":"large_airport","scheduledService":true,"latitude":45.588699,"longitude":-122.598,"keywords":"","score":1015775},{"id":2578,"iataCode":"OSL","icaoCode":"ENGM","airportName":"Oslo-Gardermoen International Airport","city":"Oslo (Gardermoen)","country":"Norway","countryCode":"NO","type":"large_airport","scheduledService":true,"latitude":60.193901,"longitude":11.1004,"keywords":"","score":1015675},{"id":3673,"iataCode":"MDW","icaoCode":"KMDW","airportName":"Chicago Midway International Airport","city":"Chicago","country":"United States","countryCode":"US","type":"large_airport","scheduledService":true,"latitude":41.785999,"longitude":-87.752403,"keywords":"CHI","score":1015475},{"id":3531,"iataCode":"FLL","icaoCode":"KFLL","airportName":"Fort Lauderdale Hollywood International Airport","city":"Fort Lauderdale","country":"United States","countryCode":"US","type":"large_airport","scheduledService":true,"latitude":26.072599,"longitude":-80.152702,"keywords":"MFW, South Florida","score":1015275},{"id":3668,"iataCode":"MCI","icaoCode":"KMCI","airportName":"Kansas City International Airport","city":"Kansas City","country":"United States","countryCode":"US","type":"large_airport","scheduledService":true,"latitude":39.301699,"longitude":-94.713893,"keywords":"","score":1015075},{"id":26434,"iataCode":"BOM","icaoCode":"VABB","airportName":"Chhatrapati Shivaji Maharaj International Airport","city":"Mumbai","country":"India","countryCode":"IN","type":"large_airport","scheduledService":true,"latitude":19.088699,"longitude":72.867897,"keywords":"Bombay, Sahar International Airport","score":1014475},{"id":2533,"iataCode":"DUB","icaoCode":"EIDW","airportName":"Dublin Airport","city":"Dublin","country":"Ireland","countryCode":"IE","type":"large_airport","scheduledService":true,"latitude":53.428713,"longitude":-6.262121,"keywords":"Aerfort Bhaile Átha Cliath","score":1014475},{"id":3675,"iataCode":"MEM","icaoCode":"KMEM","airportName":"Memphis International Airport","city":"Memphis","country":"United States","countryCode":"US","type":"large_airport","scheduledService":true,"latitude":35.043845,"longitude":-89.97634,"keywords":"","score":1014475},{"id":5689,"iataCode":"MNL","icaoCode":"RPLL","airportName":"Ninoy Aquino International Airport","city":"Manila (Pasay)","country":"Philippines","countryCode":"PH","type":"large_airport","scheduledService":true,"latitude":14.5086,"longitude":121.019997,"keywords":"Manila International Airport, Jesus Villamor Air Base","score":1014275},{"id":5235,"iataCode":"DXB","icaoCode":"OMDB","airportName":"Dubai International Airport","city":"Dubai","country":"United Arab Emirates","countryCode":"AE","type":"large_airport","scheduledService":true,"latitude":25.24979,"longitude":55.370992,"keywords":"مطار دبي الدولي‎","score":1013675},{"id":4434,"iataCode":"VIE","icaoCode":"LOWW","airportName":"Vienna International Airport","city":"Vienna","country":"Austria","countryCode":"AT","type":"large_airport","scheduledService":true,"latitude":48.110298,"longitude":16.5697,"keywords":"","score":1013675},{"id":26901,"iataCode":"BNE","icaoCode":"YBBN","airportName":"Brisbane International Airport","city":"Brisbane","country":"Australia","countryCode":"AU","type":"large_airport","scheduledService":true,"latitude":-27.384199142456055,"longitude":153.11700439453125,"keywords":"","score":1013175},{"id":5516,"iataCode":"KHH","icaoCode":"RCKH","airportName":"Kaohsiung International Airport","city":"Kaohsiung (Xiaogang)","country":"Taiwan","countryCode":"TW","type":"large_airport","scheduledService":true,"latitude":22.577101,"longitude":120.349998,"keywords":"Siaogang International Airport, 高雄國際航空站, 小港國際機場","score":1013175},{"id":5097,"iataCode":"JED","icaoCode":"OEJN","airportName":"King Abdulaziz International Airport","city":"Jeddah","country":"Saudi Arabia","countryCode":"SA","type":"large_airport","scheduledService":true,"latitude":21.680241,"longitude":39.157436,"keywords":"Mecca, Hajj","score":1013075},{"id":5576,"iataCode":"NGO","icaoCode":"RJGG","airportName":"Chubu Centrair International Airport","city":"Tokoname","country":"Japan","countryCode":"JP","type":"large_airport","scheduledService":true,"latitude":34.858398,"longitude":136.804993,"keywords":"","score":1012875},{"id":26396,"iataCode":"SVO","icaoCode":"UUEE","airportName":"Sheremetyevo International Airport","city":"Moscow","country":"Russia","countryCode":"RU","type":"large_airport","scheduledService":true,"latitude":55.976858,"longitude":37.41121,"keywords":"УУЕЕ, Москва, MOW, Международный аэропорт Шереметьево, Alexander S. Pushkin","score":1012675},{"id":2214,"iataCode":"HAM","icaoCode":"EDDH","airportName":"Hamburg Helmut Schmidt Airport","city":"Hamburg","country":"Germany","countryCode":"DE","type":"large_airport","scheduledService":true,"latitude":53.630402,"longitude":9.98823,"keywords":"Hamburg-Fuhlsbüttel Airport","score":1012575},{"id":3711,"iataCode":"MSY","icaoCode":"KMSY","airportName":"Louis Armstrong New Orleans International Airport","city":"New Orleans","country":"United States","countryCode":"US","type":"large_airport","scheduledService":true,"latitude":29.993401,"longitude":-90.264673,"keywords":"","score":1012575},{"id":3744,"iataCode":"OAK","icaoCode":"KOAK","airportName":"Oakland San Francisco Bay Airport","city":"Oakland","country":"United States","countryCode":"US","type":"large_airport","scheduledService":true,"latitude":37.720085,"longitude":-122.221184,"keywords":"Metro Oakland International","score":1012475},{"id":3081,"iataCode":"LPA","icaoCode":"GCLP","airportName":"Gran Canaria Airport","city":"Gran Canaria Island","country":"Spain","countryCode":"ES","type":"large_airport","scheduledService":true,"latitude":27.9319,"longitude":-15.3866,"keywords":"Canary Islands, Las Palmas Airport, Gando Airport","score":1012275},{"id":2476,"iataCode":"STN","icaoCode":"EGSS","airportName":"London Stansted Airport","city":"London, Essex","country":"United Kingdom","countryCode":"GB","type":"large_airport","scheduledService":true,"latitude":51.884998,"longitude":0.235,"keywords":"LON","score":1012275},{"id":6384,"iataCode":"SJU","icaoCode":"TJSJ","airportName":"Luis Munoz Marin International Airport","city":"San Juan","country":"Puerto Rico","countryCode":"PR","type":"large_airport","scheduledService":true,"latitude":18.4394,"longitude":-66.001801,"keywords":"Isla Verde","score":1012275},{"id":3844,"iataCode":"RDU","icaoCode":"KRDU","airportName":"Raleigh-Durham International Airport","city":"Raleigh/Durham","country":"United States","countryCode":"US","type":"large_airport","scheduledService":true,"latitude":35.878659,"longitude":-78.7873,"keywords":"","score":1011675},{"id":4411,"iataCode":"TLV","icaoCode":"LLBG","airportName":"Ben Gurion International Airport","city":"Tel Aviv","country":"Israel","countryCode":"IL","type":"large_airport","scheduledService":true,"latitude":32.011398,"longitude":34.8867,"keywords":"","score":1011275},{"id":4461,"iataCode":"LIS","icaoCode":"LPPT","airportName":"Lisbon Humberto Delgado Airport","city":"Lisbon","country":"Portugal","countryCode":"PT","type":"large_airport","scheduledService":true,"latitude":38.7813,"longitude":-9.13592,"keywords":"Lisboa, Portela","score":1011275},{"id":3083,"iataCode":"TFS","icaoCode":"GCTS","airportName":"Tenerife Sur Airport","city":"Tenerife","country":"Spain","countryCode":"ES","type":"large_airport","scheduledService":true,"latitude":28.0445,"longitude":-16.5725,"keywords":"Reina Sofía, TCI, Tenerife South","score":1010675},{"id":3610,"iataCode":"IND","icaoCode":"KIND","airportName":"Indianapolis International Airport","city":"Indianapolis","country":"United States","countryCode":"US","type":"large_airport","scheduledService":true,"latitude":39.7173,"longitude":-86.294403,"keywords":"","score":52075},{"id":3420,"iataCode":"BNA","icaoCode":"KBNA","airportName":"Nashville International Airport","city":"Nashville","country":"United States","countryCode":"US","type":"large_airport","scheduledService":true,"latitude":36.1245,"longitude":-86.6782,"keywords":"","score":52075},{"id":2307,"iataCode":"HEL","icaoCode":"EFHK","airportName":"Helsinki Vantaa Airport","city":"Helsinki (Vantaa)","country":"Finland","countryCode":"FI","type":"large_airport","scheduledService":true,"latitude":60.318363,"longitude":24.963341,"keywords":"","score":51875},{"id":1928,"iataCode":"YUL","icaoCode":"CYUL","airportName":"Montreal / Pierre Elliott Trudeau International Airport","city":"Montréal","country":"Canada","countryCode":"CA","type":"large_airport","scheduledService":true,"latitude":45.467837,"longitude":-73.742294,"keywords":"YMQ, Dorval Airport","score":51875},{"id":3386,"iataCode":"AUS","icaoCode":"KAUS","airportName":"Austin Bergstrom International Airport","city":"Austin","country":"United States","countryCode":"US","type":"large_airport","scheduledService":true,"latitude":30.197535,"longitude":-97.662015,"keywords":"BSM, KBSM, Bergstrom AFB","score":51675},{"id":4296,"iataCode":"BUD","icaoCode":"LHBP","airportName":"Budapest Liszt Ferenc International Airport","city":"Budapest","country":"Hungary","countryCode":"HU","type":"large_airport","scheduledService":true,"latitude":47.43018,"longitude":19.262393,"keywords":"Ferihegyi nemzetközi repülőtér, Budapest Liszt Ferenc international Airport","score":51675},{"id":3183,"iataCode":"CAI","icaoCode":"HECA","airportName":"Cairo International Airport","city":"Cairo","country":"Egypt","countryCode":"EG","type":"large_airport","scheduledService":true,"latitude":30.111534,"longitude":31.396694,"keywords":"","score":51675},{"id":5656,"iataCode":"GMP","icaoCode":"RKSS","airportName":"Gimpo International Airport","city":"Seoul","country":"South Korea","countryCode":"KR","type":"large_airport","scheduledService":true,"latitude":37.5583,"longitude":126.791,"keywords":"","score":51675},{"id":5653,"iataCode":"ICN","icaoCode":"RKSI","airportName":"Incheon International Airport","city":"Seoul","country":"South Korea","countryCode":"KR","type":"large_airport","scheduledService":true,"latitude":37.469101,"longitude":126.450996,"keywords":"","score":51675},{"id":4251,"iataCode":"ATH","icaoCode":"LGAV","airportName":"Athens Eleftherios Venizelos International Airport","city":"Spata-Artemida","country":"Greece","countryCode":"GR","type":"large_airport","scheduledService":true,"latitude":37.936401,"longitude":23.9445,"keywords":"","score":51600},{"id":5112,"iataCode":"RUH","icaoCode":"OERK","airportName":"King Khalid International Airport","city":"Riyadh","country":"Saudi Arabia","countryCode":"SA","type":"large_airport","scheduledService":true,"latitude":24.9576,"longitude":46.698799,"keywords":"Riyad","score":51600},{"id":26835,"iataCode":"CGK","icaoCode":"WIII","airportName":"Soekarno-Hatta International Airport","city":"Jakarta","country":"Indonesia","countryCode":"ID","type":"large_airport","scheduledService":true,"latitude":-6.12557,"longitude":106.655998,"keywords":"JKT, Cengkareng, Java","score":51600},{"id":27194,"iataCode":"CAN","icaoCode":"ZGGG","airportName":"Guangzhou Baiyun International Airport","city":"Guangzhou (Huadu)","country":"China","countryCode":"CN","type":"large_airport","scheduledService":true,"latitude":23.392401,"longitude":113.299004,"keywords":"","score":51575},{"id":5023,"iataCode":"AKL","icaoCode":"NZAA","airportName":"Auckland International Airport","city":"Auckland","country":"New Zealand","countryCode":"NZ","type":"large_airport","scheduledService":true,"latitude":-37.01199,"longitude":174.786331,"keywords":"","score":51475},{"id":2216,"iataCode":"CGN","icaoCode":"EDDK","airportName":"Cologne Bonn Airport","city":"Köln (Cologne)","country":"Germany","countryCode":"DE","type":"large_airport","scheduledService":true,"latitude":50.865898,"longitude":7.14274,"keywords":"Köln","score":51475},{"id":26555,"iataCode":"DEL","icaoCode":"VIDP","airportName":"Indira Gandhi International Airport","city":"New Delhi","country":"India","countryCode":"IN","type":"large_airport","scheduledService":true,"latitude":28.55563,"longitude":77.09519,"keywords":"Palam Air Force Station","score":51475},{"id":4156,"iataCode":"NCE","icaoCode":"LFMN","airportName":"Nice-Côte d'Azur Airport","city":"Nice, Alpes-Maritimes","country":"France","countryCode":"FR","type":"large_airport","scheduledService":true,"latitude":43.658401,"longitude":7.21587,"keywords":"","score":51475},{"id":5906,"iataCode":"GIG","icaoCode":"SBGL","airportName":"Rio Galeão – Tom Jobim International Airport","city":"Rio De Janeiro","country":"Brazil","countryCode":"BR","type":"large_airport","scheduledService":true,"latitude":-22.809999,"longitude":-43.250557,"keywords":"Galeão - Antônio Carlos Jobim International Airport","score":51475},{"id":3892,"iataCode":"SMF","icaoCode":"KSMF","airportName":"Sacramento International Airport","city":"Sacramento","country":"United States","countryCode":"US","type":"large_airport","scheduledService":true,"latitude":38.6954,"longitude":-121.591003,"keywords":"","score":51475},{"id":4408,"iataCode":"PRG","icaoCode":"LKPR","airportName":"Václav Havel Airport Prague","city":"Prague","country":"Czech Republic","countryCode":"CZ","type":"large_airport","scheduledService":true,"latitude":50.100874,"longitude":14.259911,"keywords":"Letiště Praha-Ruzyně, Ruzyně International Airport, Letiště Václava Havla Praha","score":51475},{"id":27119,"iataCode":"PER","icaoCode":"YPPH","airportName":"Perth International Airport","city":"Perth","country":"Australia","countryCode":"AU","type":"large_airport","scheduledService":true,"latitude":-31.94029998779297,"longitude":115.96700286865234,"keywords":"","score":51375},{"id":1973,"iataCode":"YYC","icaoCode":"CYYC","airportName":"Calgary International Airport","city":"Calgary","country":"Canada","countryCode":"CA","type":"large_airport","scheduledService":true,"latitude":51.118822,"longitude":-114.009933,"keywords":"McCall Field","score":51275},{"id":2775,"iataCode":"CPT","icaoCode":"FACT","airportName":"Cape Town International Airport","city":"Cape Town","country":"South Africa","countryCode":"ZA","type":"large_airport","scheduledService":true,"latitude":-33.97403,"longitude":18.604333,"keywords":"Kaapstad Internasionale Lughawe, CTIA, DF Malan Airport","score":51275},{"id":2462,"iataCode":"EDI","icaoCode":"EGPH","airportName":"Edinburgh Airport","city":"Edinburgh","country":"United Kingdom","countryCode":"GB","type":"large_airport","scheduledService":true,"latitude":55.950145,"longitude":-3.372288,"keywords":"","score":51275},{"id":6104,"iataCode":"BOG","icaoCode":"SKBO","airportName":"El Dorado International Airport","city":"Bogota","country":"Colombia","countryCode":"CO","type":"large_airport","scheduledService":true,"latitude":4.70159,"longitude":-74.1469,"keywords":"Cundinamarca","score":51275},{"id":4490,"iataCode":"GVA","icaoCode":"LSGG","airportName":"Geneva International Airport","city":"Geneva","country":"Switzerland","countryCode":"CH","type":"large_airport","scheduledService":true,"latitude":46.238098,"longitude":6.10895,"keywords":"Cointrin Airport","score":51275},{"id":2461,"iataCode":"GLA","icaoCode":"EGPF","airportName":"Glasgow Airport","city":"Glasgow","country":"United Kingdom","countryCode":"GB","type":"large_airport","scheduledService":true,"latitude":55.871899,"longitude":-4.43306,"keywords":"Port-adhair Eadar-nàiseanta Ghlaschu, RAF Abbotsinch, RAF Ayr","score":51275},{"id":5639,"iataCode":"CJU","icaoCode":"RKPC","airportName":"Jeju International Airport","city":"Jeju City","country":"South Korea","countryCode":"KR","type":"large_airport","scheduledService":true,"latitude":33.512058,"longitude":126.492548,"keywords":"","score":51275},{"id":2419,"iataCode":"LTN","icaoCode":"EGGW","airportName":"London Luton Airport","city":"Luton, Luton","country":"United Kingdom","countryCode":"GB","type":"large_airport","scheduledService":true,"latitude":51.874699,"longitude":-0.368333,"keywords":"LON","score":51275},{"id":4020,"iataCode":"AGP","icaoCode":"LEMG","airportName":"Málaga-Costa del Sol Airport","city":"Málaga","country":"Spain","countryCode":"ES","type":"large_airport","scheduledService":true,"latitude":36.6749,"longitude":-4.49911,"keywords":"Costa del Sol, Malaga","score":51275},{"id":5872,"iataCode":"BSB","icaoCode":"SBBR","airportName":"Presidente Juscelino Kubitschek International Airport","city":"Brasília","country":"Brazil","countryCode":"BR","type":"large_airport","scheduledService":true,"latitude":-15.869167,"longitude":-47.920834,"keywords":"","score":51275},{"id":2222,"iataCode":"STR","icaoCode":"EDDS","airportName":"Stuttgart Airport","city":"Stuttgart","country":"Germany","countryCode":"DE","type":"large_airport","scheduledService":true,"latitude":48.689899,"longitude":9.22196,"keywords":"","score":51275},{"id":26708,"iataCode":"SGN","icaoCode":"VVTS","airportName":"Tan Son Nhat International Airport","city":"Ho Chi Minh City","country":"Vietnam","countryCode":"VN","type":"large_airport","scheduledService":true,"latitude":10.8188,"longitude":106.652,"keywords":"Tansonnhat, Sài Gòn, Saigon, Sân bay Quốc tế Tân Sơn Nhất, Tan Son Nhut Air Base, Tan Son Nhut Airfield","score":51275},{"id":2637,"iataCode":"WAW","icaoCode":"EPWA","airportName":"Warsaw Chopin Airport","city":"Warsaw","country":"Poland","countryCode":"PL","type":"large_airport","scheduledService":true,"latitude":52.165699,"longitude":20.9671,"keywords":"Okęcie, Warszawa","score":51275},{"id":26394,"iataCode":"DME","icaoCode":"UUDD","airportName":"Domodedovo International Airport","city":"Moscow","country":"Russia","countryCode":"RU","type":"large_airport","scheduledService":true,"latitude":55.408798,"longitude":37.9063,"keywords":"MOW, Аэропорт Домоде́дово","score":51200},{"id":35145,"iataCode":"BLR","icaoCode":"VOBL","airportName":"Kempegowda International Airport Bengaluru","city":"Bengaluru","country":"India","countryCode":"IN","type":"large_airport","scheduledService":true,"latitude":13.1979,"longitude":77.706299,"keywords":"Bangalore","score":51200},{"id":4035,"iataCode":"PMI","icaoCode":"LEPA","airportName":"Palma de Mallorca Airport","city":"Palma de Mallorca","country":"Spain","countryCode":"ES","type":"large_airport","scheduledService":true,"latitude":39.551701,"longitude":2.73881,"keywords":"Son Sant Joan Airport, LESJ","score":51200},{"id":27198,"iataCode":"SZX","icaoCode":"ZGSZ","airportName":"Shenzhen Bao'an International Airport","city":"Shenzhen","country":"China","countryCode":"CN","type":"large_airport","scheduledService":true,"latitude":22.639474,"longitude":113.803262,"keywords":"Baoan, Huangtian Airport, 深圳, 深圳宝安国际机场","score":51200},{"id":27205,"iataCode":"XIY","icaoCode":"ZLXY","airportName":"Xi'an Xianyang International Airport","city":"Xi'an","country":"China","countryCode":"CN","type":"large_airport","scheduledService":true,"latitude":34.442207,"longitude":108.762385,"keywords":"西安咸阳国际机场, Xian, Xianyang, Xi'an","score":51200},{"id":27215,"iataCode":"XMN","icaoCode":"ZSAM","airportName":"Xiamen Gaoqi International Airport","city":"Xiamen","country":"China","countryCode":"CN","type":"large_airport","scheduledService":true,"latitude":24.543889,"longitude":118.127454,"keywords":"厦门高崎国际机场","score":51200},{"id":3997,"iataCode":"ALC","icaoCode":"LEAL","airportName":"Alicante-Elche Miguel Hernández Airport","city":"Alicante","country":"Spain","countryCode":"ES","type":"large_airport","scheduledService":true,"latitude":38.2822,"longitude":-0.558156,"keywords":"","score":51150},{"id":4515,"iataCode":"AYT","icaoCode":"LTAI","airportName":"Antalya International Airport","city":"Antalya","country":"Turkey","countryCode":"TR","type":"large_airport","scheduledService":true,"latitude":36.898701,"longitude":30.800501,"keywords":"","score":51150},{"id":4762,"iataCode":"CUN","icaoCode":"MMUN","airportName":"Cancún International Airport","city":"Cancún","country":"Mexico","countryCode":"MX","type":"large_airport","scheduledService":true,"latitude":21.040817,"longitude":-86.87347,"keywords":"","score":51150},{"id":27230,"iataCode":"CTU","icaoCode":"ZUUU","airportName":"Chengdu Shuangliu International Airport","city":"Chengdu (Shuangliu)","country":"China","countryCode":"CN","type":"large_airport","scheduledService":true,"latitude":30.558257,"longitude":103.945966,"keywords":"成都双流国际机场","score":51150},{"id":26618,"iataCode":"MAA","icaoCode":"VOMM","airportName":"Chennai International Airport","city":"Chennai","country":"India","countryCode":"IN","type":"large_airport","scheduledService":true,"latitude":12.990005,"longitude":80.169296,"keywords":"Madras","score":51150},{"id":6015,"iataCode":"SCL","icaoCode":"SCEL","airportName":"Comodoro Arturo Merino Benítez International Airport","city":"Santiago","country":"Chile","countryCode":"CL","type":"large_airport","scheduledService":true,"latitude":-33.393001556396484,"longitude":-70.78579711914062,"keywords":"","score":51150},{"id":26789,"iataCode":"SUB","icaoCode":"WARR","airportName":"Juanda International Airport","city":"Surabaya","country":"Indonesia","countryCode":"ID","type":"large_airport","scheduledService":true,"latitude":-7.37983,"longitude":112.787003,"keywords":"WRSJ, Sedati, Sidoarjo","score":51150},{"id":27214,"iataCode":"KMG","icaoCode":"ZPPP","airportName":"Kunming Changshui International Airport","city":"Kunming","country":"China","countryCode":"CN","type":"large_airport","scheduledService":true,"latitude":25.110313,"longitude":102.936743,"keywords":"","score":51150},{"id":5671,"iataCode":"OKA","icaoCode":"ROAH","airportName":"Naha International Airport","city":"Naha","country":"Japan","countryCode":"JP","type":"large_airport","scheduledService":true,"latitude":26.192437,"longitude":127.639804,"keywords":"那覇空港, Naha Kūkō?, AHA, Naha AFB","score":51150},{"id":5598,"iataCode":"ITM","icaoCode":"RJOO","airportName":"Osaka Itami International Airport","city":"Osaka","country":"Japan","countryCode":"JP","type":"large_airport","scheduledService":true,"latitude":34.780853,"longitude":135.440829,"keywords":"OSA, Itami","score":51150},{"id":27223,"iataCode":"PVG","icaoCode":"ZSPD","airportName":"Shanghai Pudong International Airport","city":"Shanghai (Pudong)","country":"China","countryCode":"CN","type":"large_airport","scheduledService":true,"latitude":31.1434,"longitude":121.805,"keywords":"上海, 上海浦东国际机场, 浦东","score":51150},{"id":3858,"iataCode":"RSW","icaoCode":"KRSW","airportName":"Southwest Florida International Airport","city":"Fort Myers","country":"United States","countryCode":"US","type":"large_airport","scheduledService":true,"latitude":26.534685,"longitude":-81.752816,"keywords":"","score":51150},{"id":28118,"iataCode":"BKK","icaoCode":"VTBS","airportName":"Suvarnabhumi Airport","city":"Bangkok","country":"Thailand","countryCode":"TH","type":"large_airport","scheduledService":true,"latitude":13.6811,"longitude":100.747002,"keywords":"","score":51150},{"id":2389,"iataCode":"BHX","icaoCode":"EGBB","airportName":"Birmingham Airport","city":"Birmingham, West Midlands","country":"United Kingdom","countryCode":"GB","type":"large_airport","scheduledService":true,"latitude":52.453899,"longitude":-1.74803,"keywords":"Birmingham International Airport","score":50850},{"id":3873,"iataCode":"SDF","icaoCode":"KSDF","airportName":"Louisville Muhammad Ali International Airport","city":"Louisville","country":"United States","countryCode":"US","type":"large_airport","scheduledService":true,"latitude":38.1706,"longitude":-85.735076,"keywords":"Louisville International, Standiford Field","score":1875},{"id":4482,"iataCode":"OTP","icaoCode":"LROP","airportName":"Bucharest Henri Coandă International Airport","city":"Otopeni","country":"Romania","countryCode":"RO","type":"large_airport","scheduledService":true,"latitude":44.571792,"longitude":26.103285,"keywords":"BUH, Otopeni Airport, RoAF 90th Airlift Base","score":1675},{"id":4509,"iataCode":"ESB","icaoCode":"LTAC","airportName":"Esenboğa International Airport","city":"Ankara","country":"Turkey","countryCode":"TR","type":"large_airport","scheduledService":true,"latitude":40.128101,"longitude":32.995098,"keywords":"","score":1675},{"id":2224,"iataCode":"HAJ","icaoCode":"EDDV","airportName":"Hannover Airport","city":"Hannover","country":"Germany","countryCode":"DE","type":"large_airport","scheduledService":true,"latitude":52.461102,"longitude":9.68508,"keywords":"","score":1675},{"id":3458,"iataCode":"CMH","icaoCode":"KCMH","airportName":"John Glenn Columbus International Airport","city":"Columbus","country":"United States","countryCode":"US","type":"large_airport","scheduledService":true,"latitude":39.998001,"longitude":-82.891899,"keywords":"","score":1675},{"id":123,"iataCode":"KEF","icaoCode":"BIKF","airportName":"Keflavik International Airport","city":"Reykjavík","country":"Iceland","countryCode":"IS","type":"large_airport","scheduledService":true,"latitude":63.985001,"longitude":-22.6056,"keywords":"Keflavik Naval Air Station, REK","score":1675},{"id":5087,"iataCode":"DMM","icaoCode":"OEDF","airportName":"King Fahd International Airport","city":"Ad Dammam","country":"Saudi Arabia","countryCode":"SA","type":"large_airport","scheduledService":true,"latitude":26.4691,"longitude":49.798209,"keywords":"","score":1675},{"id":5220,"iataCode":"KWI","icaoCode":"OKKK","airportName":"Kuwait International Airport","city":"Kuwait City","country":"Kuwait","countryCode":"KW","type":"large_airport","scheduledService":true,"latitude":29.224487,"longitude":47.969813,"keywords":"OKBK, Al Mubarak Air Base, مطار الكويت الدولي","score":1675},{"id":4070,"iataCode":"TLS","icaoCode":"LFBO","airportName":"Toulouse-Blagnac Airport","city":"Toulouse/Blagnac","country":"France","countryCode":"FR","type":"large_airport","scheduledService":true,"latitude":43.629101,"longitude":1.36382,"keywords":"Airbus","score":1675},{"id":3690,"iataCode":"MKE","icaoCode":"KMKE","airportName":"General Mitchell International Airport","city":"Milwaukee","country":"United States","countryCode":"US","type":"large_airport","scheduledService":true,"latitude":42.947201,"longitude":-87.896599,"keywords":"","score":1575},{"id":3431,"iataCode":"BUF","icaoCode":"KBUF","airportName":"Buffalo Niagara International Airport","city":"Buffalo","country":"United States","countryCode":"US","type":"large_airport","scheduledService":true,"latitude":42.940498,"longitude":-78.732201,"keywords":"","score":1475},{"id":1717,"iataCode":"YEG","icaoCode":"CYEG","airportName":"Edmonton International Airport","city":"Edmonton","country":"Canada","countryCode":"CA","type":"large_airport","scheduledService":true,"latitude":53.3097,"longitude":-113.580002,"keywords":"","score":1475},{"id":3620,"iataCode":"JAX","icaoCode":"KJAX","airportName":"Jacksonville International Airport","city":"Jacksonville","country":"United States","countryCode":"US","type":"large_airport","scheduledService":true,"latitude":30.492469,"longitude":-81.687813,"keywords":"","score":1475},{"id":3752,"iataCode":"ONT","icaoCode":"KONT","airportName":"Ontario International Airport","city":"Ontario","country":"United States","countryCode":"US","type":"large_airport","scheduledService":true,"latitude":34.056,"longitude":-117.600998,"keywords":"","score":1475},{"id":5101,"iataCode":"MED","icaoCode":"OEMA","airportName":"Prince Mohammad Bin Abdulaziz Airport","city":"Medina","country":"Saudi Arabia","countryCode":"SA","type":"large_airport","scheduledService":true,"latitude":24.5534,"longitude":39.705101,"keywords":"Medinah","score":1475},{"id":5212,"iataCode":"AMM","icaoCode":"OJAI","airportName":"Queen Alia International Airport","city":"Amman","country":"Jordan","countryCode":"JO","type":"large_airport","scheduledService":true,"latitude":31.7226009369,"longitude":35.9931983948,"keywords":"","score":1475},{"id":3847,"iataCode":"RIC","icaoCode":"KRIC","airportName":"Richmond International Airport","city":"Richmond","country":"United States","countryCode":"US","type":"large_airport","scheduledService":true,"latitude":37.505199,"longitude":-77.319702,"keywords":"","score":1475},{"id":3863,"iataCode":"SAT","icaoCode":"KSAT","airportName":"San Antonio International Airport","city":"San Antonio","country":"United States","countryCode":"US","type":"large_airport","scheduledService":true,"latitude":29.533701,"longitude":-98.469803,"keywords":"","score":1475},{"id":2602,"iataCode":"SVG","icaoCode":"ENZV","airportName":"Stavanger Airport, Sola","city":"Stavanger","country":"Norway","countryCode":"NO","type":"large_airport","scheduledService":true,"latitude":58.876701,"longitude":5.63778,"keywords":"Sola Air Station, Stavanger lufthavn, Sola","score":1475},{"id":26392,"iataCode":"TAS","icaoCode":"UZTT","airportName":"Tashkent International Airport","city":"Tashkent","country":"Uzbekistan","countryCode":"UZ","type":"large_airport","scheduledService":true,"latitude":41.2579,"longitude":69.281197,"keywords":"UTTT","score":1475},{"id":5388,"iataCode":"ANC","icaoCode":"PANC","airportName":"Ted Stevens Anchorage International Airport","city":"Anchorage","country":"United States","countryCode":"US","type":"large_airport","scheduledService":true,"latitude":61.179004,"longitude":-149.992561,"keywords":"Anchorage","score":1475},{"id":3930,"iataCode":"TUL","icaoCode":"KTUL","airportName":"Tulsa International Airport","city":"Tulsa","country":"United States","countryCode":"US","type":"large_airport","scheduledService":true,"latitude":36.197084,"longitude":-95.886225,"keywords":"","score":1475},{"id":6440,"iataCode":"GYD","icaoCode":"UBBB","airportName":"Heydar Aliyev International Airport","city":"Baku","country":"Azerbaijan","countryCode":"AZ","type":"large_airport","scheduledService":true,"latitude":40.47278,"longitude":50.050931,"keywords":"BAK, Bina International Airport, Heydər Əliyev adına beynəlxalq hava limanı, Gaydar Aliyev","score":1375},{"id":4155,"iataCode":"MRS","icaoCode":"LFML","airportName":"Marseille Provence Airport","city":"Marignane, Bouches-du-Rhône","country":"France","countryCode":"FR","type":"large_airport","scheduledService":true,"latitude":43.438088,"longitude":5.2125,"keywords":"","score":1375},{"id":4533,"iataCode":"ADB","icaoCode":"LTBJ","airportName":"Adnan Menderes International Airport","city":"Gaziemir","country":"Turkey","countryCode":"TR","type":"large_airport","scheduledService":true,"latitude":38.2924,"longitude":27.157,"keywords":"İzmir","score":1275},{"id":6421,"iataCode":"ALA","icaoCode":"UAAA","airportName":"Almaty International Airport","city":"Almaty","country":"Kazakhstan","countryCode":"KZ","type":"large_airport","scheduledService":true,"latitude":43.354267,"longitude":77.042828,"keywords":"Alma Ata","score":1275},{"id":5079,"iataCode":"BAH","icaoCode":"OBBI","airportName":"Bahrain International Airport","city":"Manama","country":"Bahrain","countryCode":"BH","type":"large_airport","scheduledService":true,"latitude":26.267295,"longitude":50.63764,"keywords":"مطار البحرين الدولي, EGYR, RAF Bahrain, RAF Muharraq","score":1275},{"id":26463,"iataCode":"CMB","icaoCode":"VCBI","airportName":"Bandaranaike International Colombo Airport","city":"Colombo","country":"Sri Lanka","countryCode":"LK","type":"large_airport","scheduledService":true,"latitude":7.180759906768799,"longitude":79.88410186767578,"keywords":"RAF Negombo, Katunayake International Airport","score":1275},{"id":2385,"iataCode":"BFS","icaoCode":"EGAA","airportName":"Belfast International Airport","city":"Belfast","country":"United Kingdom","countryCode":"GB","type":"large_airport","scheduledService":true,"latitude":54.6575012207,"longitude":-6.2158298492399995,"keywords":"Aldergrove, RAF Aldergrove","score":1275},{"id":4610,"iataCode":"BEG","icaoCode":"LYBE","airportName":"Belgrade Nikola Tesla Airport","city":"Belgrade","country":"Serbia","countryCode":"RS","type":"large_airport","scheduledService":true,"latitude":44.818401,"longitude":20.309099,"keywords":"Beograd, Surčin Airport","score":1275},{"id":2570,"iataCode":"BGO","icaoCode":"ENBR","airportName":"Bergen Airport, Flesland","city":"Bergen","country":"Norway","countryCode":"NO","type":"large_airport","scheduledService":true,"latitude":60.2934,"longitude":5.21814,"keywords":"","score":1275},{"id":2541,"iataCode":"BLL","icaoCode":"EKBI","airportName":"Billund Airport","city":"Billund","country":"Denmark","countryCode":"DK","type":"large_airport","scheduledService":true,"latitude":55.740335,"longitude":9.157019,"keywords":"","score":1275},{"id":4060,"iataCode":"BOD","icaoCode":"LFBD","airportName":"Bordeaux–Mérignac Airport","city":"Bordeaux","country":"France","countryCode":"FR","type":"large_airport","scheduledService":true,"latitude":44.82865,"longitude":-0.715356,"keywords":"","score":1275},{"id":26819,"iataCode":"BWN","icaoCode":"WBSB","airportName":"Brunei International Airport","city":"Bandar Seri Begawan","country":"Brunei","countryCode":"BN","type":"large_airport","scheduledService":true,"latitude":4.9442,"longitude":114.928001,"keywords":"","score":1275},{"id":6247,"iataCode":"MVD","icaoCode":"SUMU","airportName":"Carrasco General Cesáreo L. Berisso International Airport","city":"Ciudad de la Costa","country":"Uruguay","countryCode":"UY","type":"large_airport","scheduledService":true,"latitude":-34.835647,"longitude":-56.026497,"keywords":"Montevideo","score":1275},{"id":5026,"iataCode":"CHC","icaoCode":"NZCH","airportName":"Christchurch International Airport","city":"Christchurch","country":"New Zealand","countryCode":"NZ","type":"large_airport","scheduledService":true,"latitude":-43.489029,"longitude":172.532065,"keywords":"","score":1275},{"id":2518,"iataCode":"EIN","icaoCode":"EHEH","airportName":"Eindhoven Airport","city":"Eindhoven","country":"Netherlands","countryCode":"NL","type":"large_airport","scheduledService":true,"latitude":51.4500999451,"longitude":5.37452983856,"keywords":"Welschap Airport","score":1275},{"id":5781,"iataCode":"EZE","icaoCode":"SAEZ","airportName":"Ezeiza International Airport - Ministro Pistarini","city":"Buenos Aires (Ezeiza)","country":"Argentina","countryCode":"AR","type":"large_airport","scheduledService":true,"latitude":-34.8222,"longitude":-58.5358,"keywords":"BUE, Ezeiza International Airport","score":1275},{"id":4321,"iataCode":"PMO","icaoCode":"LICJ","airportName":"Falcone–Borsellino Airport","city":"Palermo","country":"Italy","countryCode":"IT","type":"large_airport","scheduledService":true,"latitude":38.175999,"longitude":13.091,"keywords":"Palermo Airport, Punta Raisi Airport","score":1275},{"id":5697,"iataCode":"DVO","icaoCode":"RPMD","airportName":"Francisco Bangoy International Airport","city":"Davao","country":"Philippines","countryCode":"PH","type":"large_airport","scheduledService":true,"latitude":7.12552,"longitude":125.646004,"keywords":"Davao International Airport","score":1275},{"id":5642,"iataCode":"PUS","icaoCode":"RKPK","airportName":"Gimhae International Airport","city":"Busan","country":"South Korea","countryCode":"KR","type":"large_airport","scheduledService":true,"latitude":35.179501,"longitude":128.938004,"keywords":"김해국제공항, 金海國際空港, Kimhae, Pusan, Busan Airport","score":1275},{"id":2648,"iataCode":"GOT","icaoCode":"ESGG","airportName":"Göteborg Landvetter Airport","city":"Göteborg","country":"Sweden","countryCode":"SE","type":"large_airport","scheduledService":true,"latitude":57.6628,"longitude":12.2798,"keywords":"Göteborg-Landvetter, Gothenburg","score":1275},{"id":4710,"iataCode":"GDL","icaoCode":"MMGL","airportName":"Guadalajara International Airport","city":"Guadalajara","country":"Mexico","countryCode":"MX","type":"large_airport","scheduledService":true,"latitude":20.523342,"longitude":-103.310108,"keywords":"Miguel Hidalgo y Costilla Guadalajara","score":1275},{"id":1770,"iataCode":"YHZ","icaoCode":"CYHZ","airportName":"Halifax / Stanfield International Airport","city":"Halifax","country":"Canada","countryCode":"CA","type":"large_airport","scheduledService":true,"latitude":44.8807983398,"longitude":-63.5085983276,"keywords":"Robert L. Stanfield International Airport","score":1275},{"id":2050,"iataCode":"ALG","icaoCode":"DAAG","airportName":"Houari Boumediene Airport","city":"Algiers","country":"Algeria","countryCode":"DZ","type":"large_airport","scheduledService":true,"latitude":36.693886,"longitude":3.214531,"keywords":"Algiers, Maison Blanche","score":1275},{"id":4569,"iataCode":"SAW","icaoCode":"LTFJ","airportName":"Istanbul Sabiha Gökçen International Airport","city":"Pendik, Istanbul","country":"Turkey","countryCode":"TR","type":"large_airport","scheduledService":true,"latitude":40.898602,"longitude":29.3092,"keywords":"Sabiha Gökçen Havalimanı","score":1275},{"id":2220,"iataCode":"LEJ","icaoCode":"EDDP","airportName":"Leipzig/Halle Airport","city":"Schkeuditz","country":"Germany","countryCode":"DE","type":"large_airport","scheduledService":true,"latitude":51.420657,"longitude":12.232705,"keywords":"Schkeuditz Airport","score":1275},{"id":2563,"iataCode":"LUX","icaoCode":"ELLX","airportName":"Luxembourg-Findel International Airport","city":"Luxembourg","country":"Luxembourg","countryCode":"LU","type":"large_airport","scheduledService":true,"latitude":49.626845,"longitude":6.212134,"keywords":"","score":1275},{"id":4617,"iataCode":"BTS","icaoCode":"LZIB","airportName":"M. R. Štefánik Airport","city":"Bratislava","country":"Slovakia","countryCode":"SK","type":"large_airport","scheduledService":true,"latitude":48.1702,"longitude":17.2127,"keywords":"","score":1275},{"id":5742,"iataCode":"CEB","icaoCode":"RPVM","airportName":"Mactan Cebu International Airport","city":"Cebu City/Lapu-Lapu City","country":"Philippines","countryCode":"PH","type":"large_airport","scheduledService":true,"latitude":10.309261,"longitude":123.97974,"keywords":"Mactan Air Base, Opon Airfield","score":1275},{"id":4427,"iataCode":"MLA","icaoCode":"LMML","airportName":"Malta International Airport","city":"Valletta","country":"Malta","countryCode":"MT","type":"large_airport","scheduledService":true,"latitude":35.845932,"longitude":14.491546,"keywords":"Luqa Airport, Valletta, Gudja, RAF Luqa","score":1275},{"id":6426,"iataCode":"BSZ","icaoCode":"UCFM","airportName":"Manas International Airport","city":"Bishkek","country":"Kyrgyzstan","countryCode":"KG","type":"large_airport","scheduledService":true,"latitude":43.061298,"longitude":74.4776,"keywords":"FRU, UAFM, Manas Air Force Base","score":1275},{"id":4567,"iataCode":"BJV","icaoCode":"LTFE","airportName":"Milas Bodrum International Airport","city":"Bodrum","country":"Turkey","countryCode":"TR","type":"large_airport","scheduledService":true,"latitude":37.249314,"longitude":27.66401,"keywords":"","score":1275},{"id":2118,"iataCode":"LOS","icaoCode":"DNMM","airportName":"Murtala Muhammed International Airport","city":"Lagos","country":"Nigeria","countryCode":"NG","type":"large_airport","scheduledService":true,"latitude":6.57737,"longitude":3.32116,"keywords":"","score":1275},{"id":5242,"iataCode":"MCT","icaoCode":"OOMS","airportName":"Muscat International Airport","city":"Muscat/Seeb","country":"Oman","countryCode":"OM","type":"large_airport","scheduledService":true,"latitude":23.600218,"longitude":58.285268,"keywords":"Seeb International Airport, Masqat, Seeb","score":1275},{"id":4378,"iataCode":"NAP","icaoCode":"LIRN","airportName":"Naples International Airport","city":"Napoli","country":"Italy","countryCode":"IT","type":"large_airport","scheduledService":true,"latitude":40.886002,"longitude":14.2908,"keywords":"Capodichino Airport, Aeroporto Internazionale di Napoli-Capodichino Ugo Niutta, Ariopuorto 'nternazziunale 'e Napule-Capodichino Ugo Niutta","score":1275},{"id":2104,"iataCode":"ABV","icaoCode":"DNAA","airportName":"Nnamdi Azikiwe International Airport","city":"Abuja","country":"Nigeria","countryCode":"NG","type":"large_airport","scheduledService":true,"latitude":9.00679,"longitude":7.26317,"keywords":"","score":1275},{"id":2219,"iataCode":"NUE","icaoCode":"EDDN","airportName":"Nuremberg Airport","city":"Nuremberg","country":"Germany","countryCode":"DE","type":"large_airport","scheduledService":true,"latitude":49.498699,"longitude":11.078056,"keywords":"Nürnberg","score":1275},{"id":6423,"iataCode":"NQZ","icaoCode":"UACC","airportName":"Nursultan Nazarbayev International Airport","city":"Astana","country":"Kazakhstan","countryCode":"KZ","type":"large_airport","scheduledService":true,"latitude":51.027035,"longitude":71.467094,"keywords":"TSE, Astana Airport","score":1275},{"id":3876,"iataCode":"SFB","icaoCode":"KSFB","airportName":"Orlando Sanford International Airport","city":"Orlando","country":"United States","countryCode":"US","type":"large_airport","scheduledService":true,"latitude":28.774277,"longitude":-81.234626,"keywords":"","score":1275},{"id":1840,"iataCode":"YOW","icaoCode":"CYOW","airportName":"Ottawa Macdonald-Cartier International Airport","city":"Ottawa","country":"Canada","countryCode":"CA","type":"large_airport","scheduledService":true,"latitude":45.322498,"longitude":-75.669197,"keywords":"Uplands, UUP, CUUP","score":1275},{"id":67,"iataCode":"POM","icaoCode":"AYPY","airportName":"Port Moresby Jacksons International Airport","city":"Port Moresby","country":"Papua New Guinea","countryCode":"PG","type":"large_airport","scheduledService":true,"latitude":-9.443380355834961,"longitude":147.22000122070312,"keywords":"","score":1275},{"id":3796,"iataCode":"PWM","icaoCode":"KPWM","airportName":"Portland International Jetport","city":"Portland","country":"United States","countryCode":"US","type":"large_airport","scheduledService":true,"latitude":43.646198,"longitude":-70.309303,"keywords":"","score":1275},{"id":3766,"iataCode":"PBI","icaoCode":"KPBI","airportName":"President Donald J. Trump International Airport","city":"West Palm Beach","country":"United States","countryCode":"US","type":"large_airport","scheduledService":true,"latitude":26.683201,"longitude":-80.095596,"keywords":"MFW, South Florida","score":1275},{"id":2758,"iataCode":"RIX","icaoCode":"EVRA","airportName":"Riga International Airport","city":"Riga","country":"Latvia","countryCode":"LV","type":"large_airport","scheduledService":true,"latitude":56.920752,"longitude":23.970711,"keywords":"","score":1275},{"id":4038,"iataCode":"SCQ","icaoCode":"LEST","airportName":"Santiago-Rosalía de Castro Airport","city":"Santiago de Compostela","country":"Spain","countryCode":"ES","type":"large_airport","scheduledService":true,"latitude":42.896301,"longitude":-8.41514,"keywords":"","score":1275},{"id":3864,"iataCode":"SAV","icaoCode":"KSAV","airportName":"Savannah Hilton Head International Airport","city":"Savannah","country":"United States","countryCode":"US","type":"large_airport","scheduledService":true,"latitude":32.126591,"longitude":-81.19998,"keywords":"","score":1275},{"id":2537,"iataCode":"SNN","icaoCode":"EINN","airportName":"Shannon Airport","city":"Shannon","country":"Ireland","countryCode":"IE","type":"large_airport","scheduledService":true,"latitude":52.702,"longitude":-8.92482,"keywords":"","score":1275},{"id":26745,"iataCode":"UPG","icaoCode":"WAAA","airportName":"Sultan Hasanuddin International Airport","city":"Makassar","country":"Indonesia","countryCode":"ID","type":"large_airport","scheduledService":true,"latitude":-5.075539,"longitude":119.553702,"keywords":"","score":1275},{"id":3913,"iataCode":"SYR","icaoCode":"KSYR","airportName":"Syracuse Hancock International Airport","city":"Syracuse","country":"United States","countryCode":"US","type":"large_airport","scheduledService":true,"latitude":43.11119842529297,"longitude":-76.1063003540039,"keywords":"","score":1275},{"id":4293,"iataCode":"SKG","icaoCode":"LGTS","airportName":"Thessaloniki Macedonia International Airport","city":"Thessaloniki","country":"Greece","countryCode":"GR","type":"large_airport","scheduledService":true,"latitude":40.51928,"longitude":22.970009,"keywords":"Makedonia. Macedonia. Salonica","score":1275},{"id":2601,"iataCode":"TRD","icaoCode":"ENVA","airportName":"Trondheim Airport, Værnes","city":"Trondheim","country":"Norway","countryCode":"NO","type":"large_airport","scheduledService":true,"latitude":63.457802,"longitude":10.924,"keywords":"","score":1275},{"id":2133,"iataCode":"TUN","icaoCode":"DTTA","airportName":"Tunis Carthage International Airport","city":"Tunis","country":"Tunisia","countryCode":"TN","type":"large_airport","scheduledService":true,"latitude":36.851002,"longitude":10.2272,"keywords":"Aéroport international de Tunis-Carthage, مطار تونس قرطاج الدولي","score":1275},{"id":2766,"iataCode":"VNO","icaoCode":"EYVI","airportName":"Vilnius International Airport","city":"Vilnius","country":"Lithuania","countryCode":"LT","type":"large_airport","scheduledService":true,"latitude":54.634102,"longitude":25.285801,"keywords":"","score":1275},{"id":5063,"iataCode":"WLG","icaoCode":"NZWN","airportName":"Wellington International Airport","city":"Wellington","country":"New Zealand","countryCode":"NZ","type":"large_airport","scheduledService":true,"latitude":-41.326839,"longitude":174.806862,"keywords":"","score":1275},{"id":1946,"iataCode":"YWG","icaoCode":"CYWG","airportName":"Winnipeg / James Armstrong Richardson International Airport","city":"Winnipeg","country":"Canada","countryCode":"CA","type":"large_airport","scheduledService":true,"latitude":49.909999847399995,"longitude":-97.2398986816,"keywords":"CFB Winnipeg","score":1275},{"id":3993,"iataCode":"ZAG","icaoCode":"LDZA","airportName":"Zagreb Franjo Tuđman International Airport","city":"Velika Gorica","country":"Croatia","countryCode":"HR","type":"large_airport","scheduledService":true,"latitude":45.742901,"longitude":16.0688,"keywords":"Pleso","score":1275},{"id":5226,"iataCode":"AUH","icaoCode":"OMAA","airportName":"Zayed International Airport","city":"Abu Dhabi","country":"United Arab Emirates","countryCode":"AE","type":"large_airport","scheduledService":true,"latitude":24.440966,"longitude":54.649237,"keywords":"Abu Dhabi International Airport","score":1275},{"id":4354,"iataCode":"BLQ","icaoCode":"LIPE","airportName":"Bologna Guglielmo Marconi Airport","city":"Bologna","country":"Italy","countryCode":"IT","type":"large_airport","scheduledService":true,"latitude":44.5354,"longitude":11.2887,"keywords":"Guglielmo Marconi Airport, Borgo Panigale Airport","score":1200},{"id":26751,"iataCode":"DPS","icaoCode":"WADD","airportName":"Denpasar I Gusti Ngurah Rai International Airport","city":"Kuta, Badung","country":"Indonesia","countryCode":"ID","type":"large_airport","scheduledService":true,"latitude":-8.748409,"longitude":115.167123,"keywords":"WRRR, Bali, Denpasar International Airport, Denpasar","score":1200},{"id":27217,"iataCode":"FOC","icaoCode":"ZSFZ","airportName":"Fuzhou Changle International Airport","city":"Fuzhou (Changle)","country":"China","countryCode":"CN","type":"large_airport","scheduledService":true,"latitude":25.929254,"longitude":119.672524,"keywords":"","score":1200},{"id":4258,"iataCode":"HER","icaoCode":"LGIR","airportName":"Heraklion International Nikos Kazantzakis Airport","city":"Heraklion","country":"Greece","countryCode":"GR","type":"large_airport","scheduledService":true,"latitude":35.339699,"longitude":25.1803,"keywords":"Crete Island","score":1200},{"id":5166,"iataCode":"IKA","icaoCode":"OIIE","airportName":"Imam Khomeini International Airport","city":"Tehran","country":"Iran","countryCode":"IR","type":"large_airport","scheduledService":true,"latitude":35.416099548339844,"longitude":51.152198791503906,"keywords":"Ahmadabad","score":1200},{"id":3206,"iataCode":"NBO","icaoCode":"HKJK","airportName":"Jomo Kenyatta International Airport","city":"Nairobi","country":"Kenya","countryCode":"KE","type":"large_airport","scheduledService":true,"latitude":-1.318886,"longitude":36.928233,"keywords":"Jkia Airport, Embakasi Airport, Nairobi International Airport","score":1200},{"id":4839,"iataCode":"HAV","icaoCode":"MUHA","airportName":"José Martí International Airport","city":"Havana","country":"Cuba","countryCode":"CU","type":"large_airport","scheduledService":true,"latitude":22.989200592041016,"longitude":-82.40910339355469,"keywords":"Habana","score":1200},{"id":4859,"iataCode":"VRA","icaoCode":"MUVR","airportName":"Juan Gualberto Gomez International Airport","city":"Matanzas","country":"Cuba","countryCode":"CU","type":"large_airport","scheduledService":true,"latitude":23.034401,"longitude":-81.435303,"keywords":"Varadero","score":1200},{"id":3980,"iataCode":"LCA","icaoCode":"LCLK","airportName":"Larnaca International Airport","city":"Larnaca","country":"Cyprus","countryCode":"CY","type":"large_airport","scheduledService":true,"latitude":34.875099,"longitude":33.624901,"keywords":"Διεθνές Aεροδρόμιο Λάρνακας","score":1200},{"id":6481,"iataCode":"LWO","icaoCode":"UKLL","airportName":"Lviv International Airport","city":"Lviv","country":"Ukraine","countryCode":"UA","type":"large_airport","scheduledService":true,"latitude":49.8125,"longitude":23.9561,"keywords":"Міжнародний аеропорт \"Львів\"","score":1200},{"id":5183,"iataCode":"MHD","icaoCode":"OIMM","airportName":"Mashhad International Airport","city":"Mashhad","country":"Iran","countryCode":"IR","type":"large_airport","scheduledService":true,"latitude":36.234821,"longitude":59.642949,"keywords":"Shahid Hashemi Nejad Airport, Mashhad Shahid Hasheminejad International Airport","score":1200},{"id":5168,"iataCode":"THR","icaoCode":"OIII","airportName":"Mehrabad International Airport","city":"Tehran","country":"Iran","countryCode":"IR","type":"large_airport","scheduledService":true,"latitude":35.689175,"longitude":51.314392,"keywords":"","score":1200},{"id":3113,"iataCode":"CMN","icaoCode":"GMMN","airportName":"Mohammed V International Airport","city":"Casablanca","country":"Morocco","countryCode":"MA","type":"large_airport","scheduledService":true,"latitude":33.3675,"longitude":-7.58997,"keywords":"CAS, Casabianca, Nouasseur","score":1200},{"id":27197,"iataCode":"NNG","icaoCode":"ZGNN","airportName":"Nanning Wuxu International Airport","city":"Nanning (Jiangnan)","country":"China","countryCode":"CN","type":"large_airport","scheduledService":true,"latitude":22.598071,"longitude":108.181922,"keywords":"南宁吴圩机场, Nanning Wuxu Air Base","score":1200},{"id":26496,"iataCode":"CCU","icaoCode":"VECC","airportName":"Netaji Subhash Chandra Bose International Airport","city":"Kolkata","country":"India","countryCode":"IN","type":"large_airport","scheduledService":true,"latitude":22.654012,"longitude":88.44765,"keywords":"Calcutta, Kolkatta, Dum Dum Air Force Station","score":1200},{"id":4862,"iataCode":"GCM","icaoCode":"MWCR","airportName":"Owen Roberts International Airport","city":"George Town","country":"Cayman Islands","countryCode":"KY","type":"large_airport","scheduledService":true,"latitude":19.292801,"longitude":-81.357697,"keywords":"Grand Cayman, George Town","score":1200},{"id":4379,"iataCode":"PSA","icaoCode":"LIRP","airportName":"Pisa International Airport","city":"Pisa (PI)","country":"Italy","countryCode":"IT","type":"large_airport","scheduledService":true,"latitude":43.683899,"longitude":10.3927,"keywords":"Galileo Galilei Airport, San Giusto Airport","score":1200},{"id":6489,"iataCode":"LED","icaoCode":"ULLI","airportName":"Pulkovo Airport","city":"St. Petersburg","country":"Russia","countryCode":"RU","type":"large_airport","scheduledService":true,"latitude":59.800301,"longitude":30.262501,"keywords":"Аэропо́рт Пу́лково, Leningrad, Shosseynaya Airport, Saint Petersburg, Petrograd","score":1200},{"id":35141,"iataCode":"HYD","icaoCode":"VOHS","airportName":"Rajiv Gandhi International Airport","city":"Hyderabad","country":"India","countryCode":"IN","type":"large_airport","scheduledService":true,"latitude":17.231318,"longitude":78.429855,"keywords":"Shamshabad, Hyderabad","score":1200},{"id":5197,"iataCode":"SYZ","icaoCode":"OISS","airportName":"Shiraz Shahid Dastghaib International Airport","city":"Shiraz","country":"Iran","countryCode":"IR","type":"large_airport","scheduledService":true,"latitude":29.5392,"longitude":52.589802,"keywords":"","score":1200},{"id":6519,"iataCode":"AER","icaoCode":"URSS","airportName":"Sochi International Airport","city":"Sochi","country":"Russia","countryCode":"RU","type":"large_airport","scheduledService":true,"latitude":43.449902,"longitude":39.9566,"keywords":"Adler Airport, Black Sea, Международный Аэропорт Сочи","score":1200},{"id":5882,"iataCode":"CNF","icaoCode":"SBCF","airportName":"Tancredo Neves International Airport","city":"Belo Horizonte","country":"Brazil","countryCode":"BR","type":"large_airport","scheduledService":true,"latitude":-19.63571,"longitude":-43.966928,"keywords":"http://www.infraero.gov.br/usa/aero_prev_home.php?ai=207","score":1200},{"id":4342,"iataCode":"TRN","icaoCode":"LIMF","airportName":"Turin Airport","city":"Caselle Torinese (TO)","country":"Italy","countryCode":"IT","type":"large_airport","scheduledService":true,"latitude":45.200802,"longitude":7.64963,"keywords":"Torino-Caselle Airport, Sandro Pertini Airport, Turin-Caselle Airport","score":1200},{"id":6446,"iataCode":"EVN","icaoCode":"UDYZ","airportName":"Zvartnots International Airport","city":"Yerevan","country":"Armenia","countryCode":"AM","type":"large_airport","scheduledService":true,"latitude":40.148941,"longitude":44.397887,"keywords":"UGEE, Erevan Airport, Erivan Airport, Аэропорт Звартноц, Аэропорт Ереван","score":1200},{"id":5289,"iataCode":"BGW","icaoCode":"ORBI","airportName":"Baghdad International Airport / New Al Muthana Air Base","city":"Baghdad","country":"Iraq","countryCode":"IQ","type":"large_airport","scheduledService":true,"latitude":33.262501,"longitude":44.2346,"keywords":"SDA, BIAP, VBC, ORBS, Camp Sather, Saddam International Airport, Al Anbar Airport","score":1150},{"id":3974,"iataCode":"BOJ","icaoCode":"LBBG","airportName":"Burgas Airport","city":"Burgas","country":"Bulgaria","countryCode":"BG","type":"large_airport","scheduledService":true,"latitude":42.569917,"longitude":27.515173,"keywords":"Bourgas","score":1150},{"id":4448,"iataCode":"FAO","icaoCode":"LPFR","airportName":"Faro - Gago Coutinho International Airport","city":"Faro","country":"Portugal","countryCode":"PT","type":"large_airport","scheduledService":true,"latitude":37.015909,"longitude":-7.970939,"keywords":"","score":1150},{"id":4459,"iataCode":"OPO","icaoCode":"LPPR","airportName":"Francisco de Sá Carneiro Airport","city":"Porto","country":"Portugal","countryCode":"PT","type":"large_airport","scheduledService":true,"latitude":41.2481002808,"longitude":-8.68138980865,"keywords":"","score":1150},{"id":2608,"iataCode":"GDN","icaoCode":"EPGD","airportName":"Gdańsk Lech Wałęsa Airport","city":"Gdańsk","country":"Poland","countryCode":"PL","type":"large_airport","scheduledService":true,"latitude":54.377602,"longitude":18.4662,"keywords":"Gdańsk-Rębiechowo","score":1150},{"id":4757,"iataCode":"TIJ","icaoCode":"MMTJ","airportName":"General Abelardo L. Rodriguez International Airport","city":"Tijuana","country":"Mexico","countryCode":"MX","type":"large_airport","scheduledService":true,"latitude":32.541043,"longitude":-116.969976,"keywords":"","score":1150},{"id":5901,"iataCode":"FLN","icaoCode":"SBFL","airportName":"Hercílio Luz International Airport","city":"Florianópolis","country":"Brazil","countryCode":"BR","type":"large_airport","scheduledService":true,"latitude":-27.670279,"longitude":-48.552502,"keywords":"http://www.infraero.gov.br/usa/aero_prev_home.php?ai=228","score":1150},{"id":3186,"iataCode":"HRG","icaoCode":"HEGN","airportName":"Hurghada International Airport","city":"Hurghada","country":"Egypt","countryCode":"EG","type":"large_airport","scheduledService":true,"latitude":27.176776,"longitude":33.796692,"keywords":"Al Ghardaqah, الغردقة","score":1150},{"id":5566,"iataCode":"KOJ","icaoCode":"RJFK","airportName":"Kagoshima Airport","city":"Kagoshima","country":"Japan","countryCode":"JP","type":"large_airport","scheduledService":true,"latitude":31.8034,"longitude":130.718994,"keywords":"","score":1150},{"id":26378,"iataCode":"SVX","icaoCode":"USSS","airportName":"Koltsovo Airport","city":"Yekaterinburg","country":"Russia","countryCode":"RU","type":"large_airport","scheduledService":true,"latitude":56.743099212646,"longitude":60.802700042725,"keywords":"","score":1150},{"id":2609,"iataCode":"KRK","icaoCode":"EPKK","airportName":"Kraków John Paul II International Airport","city":"Balice","country":"Poland","countryCode":"PL","type":"large_airport","scheduledService":true,"latitude":50.077702,"longitude":19.7848,"keywords":"Krakov","score":1150},{"id":26412,"iataCode":"KUF","icaoCode":"UWWW","airportName":"Kurumoch International Airport","city":"Samara","country":"Russia","countryCode":"RU","type":"large_airport","scheduledService":true,"latitude":53.504902,"longitude":50.164299,"keywords":"","score":1150},{"id":2301,"iataCode":"TLL","icaoCode":"EETN","airportName":"Lennart Meri Tallinn Airport","city":"Tallinn","country":"Estonia","countryCode":"EE","type":"large_airport","scheduledService":true,"latitude":59.413246,"longitude":24.83264,"keywords":"Tallinna Lennujaam","score":1150},{"id":4750,"iataCode":"SJD","icaoCode":"MMSD","airportName":"Los Cabos International Airport","city":"San José del Cabo","country":"Mexico","countryCode":"MX","type":"large_airport","scheduledService":true,"latitude":23.151919,"longitude":-109.720731,"keywords":"","score":1150},{"id":26589,"iataCode":"MFM","icaoCode":"VMMC","airportName":"Macau International Airport","city":"Nossa Senhora do Carmo","country":"Macau","countryCode":"MO","type":"large_airport","scheduledService":true,"latitude":22.149599,"longitude":113.592003,"keywords":"澳門國際機場","score":1150},{"id":6501,"iataCode":"MSQ","icaoCode":"UMMS","airportName":"Minsk National Airport","city":"Minsk","country":"Belarus","countryCode":"BY","type":"large_airport","scheduledService":true,"latitude":53.888071,"longitude":28.039964,"keywords":"Нацыянальны аэрапорт, Minsk 2 Airport","score":1150},{"id":26700,"iataCode":"HAN","icaoCode":"VVNB","airportName":"Noi Bai International Airport","city":"Hanoi (Soc Son)","country":"Vietnam","countryCode":"VN","type":"large_airport","scheduledService":true,"latitude":21.221201,"longitude":105.806999,"keywords":"Noibai Airport, Sân bay Quốc tế Nội Bài","score":1150},{"id":4613,"iataCode":"TGD","icaoCode":"LYPG","airportName":"Podgorica Airport / Podgorica Golubovci Airbase","city":"Podgorica","country":"Montenegro","countryCode":"ME","type":"large_airport","scheduledService":true,"latitude":42.359402,"longitude":19.2519,"keywords":"Podgorica Airbase, Golubovci Airbase, Аеродром Подгорица, Aerodrom Podgorica","score":1150},{"id":4745,"iataCode":"PVR","icaoCode":"MMPR","airportName":"Puerto Vallarta International Airport","city":"Puerto Vallarta","country":"Mexico","countryCode":"MX","type":"large_airport","scheduledService":true,"latitude":20.679913,"longitude":-105.254391,"keywords":"Licenciado Gustavo Díaz Ordaz","score":1150},{"id":3977,"iataCode":"SOF","icaoCode":"LBSF","airportName":"Sofia Airport","city":"Sofia","country":"Bulgaria","countryCode":"BG","type":"large_airport","scheduledService":true,"latitude":42.696357,"longitude":23.417671,"keywords":"Sofia International Airport, Vrazhdebna Air Base","score":1150},{"id":26411,"iataCode":"UFA","icaoCode":"UWUU","airportName":"Ufa International Airport","city":"Ufa","country":"Russia","countryCode":"RU","type":"large_airport","scheduledService":true,"latitude":54.557498931885,"longitude":55.874401092529,"keywords":"Международный аэропорт Уфа","score":1150},{"id":3979,"iataCode":"VAR","icaoCode":"LBWN","airportName":"Varna Airport","city":"Varna","country":"Bulgaria","countryCode":"BG","type":"large_airport","scheduledService":true,"latitude":43.232101,"longitude":27.8251,"keywords":"Aksakovo","score":1150},{"id":3157,"iataCode":"ADD","icaoCode":"HAAB","airportName":"Addis Ababa Bole International Airport","city":"Addis Ababa","country":"Ethiopia","countryCode":"ET","type":"large_airport","scheduledService":true,"latitude":8.97789,"longitude":38.799301,"keywords":"Haile Selassie I, Bole International Airport","score":1050},{"id":5771,"iataCode":"AEP","icaoCode":"SABE","airportName":"Aeroparque Jorge Newbery","city":"Buenos Aires","country":"Argentina","countryCode":"AR","type":"large_airport","scheduledService":true,"latitude":-34.559419,"longitude":-58.415536,"keywords":"","score":1050},{"id":5257,"iataCode":"LHE","icaoCode":"OPLA","airportName":"Allama Iqbal International Airport","city":"Lahore","country":"Pakistan","countryCode":"PK","type":"large_airport","scheduledService":true,"latitude":31.521601,"longitude":74.403603,"keywords":"OPLR","score":1050},{"id":3150,"iataCode":"SID","icaoCode":"GVAC","airportName":"Amílcar Cabral International Airport","city":"Espargos","country":"Cape Verde","countryCode":"CV","type":"large_airport","scheduledService":true,"latitude":16.7414,"longitude":-22.9494,"keywords":"Sal Island","score":1050},{"id":5433,"iataCode":"GUM","icaoCode":"PGUM","airportName":"Antonio B. Won Pat International Airport","city":"Hagåtña","country":"Guam","countryCode":"GU","type":"large_airport","scheduledService":true,"latitude":13.485,"longitude":144.797282,"keywords":"NGM, NAS Agana","score":1050},{"id":26380,"iataCode":"ASB","icaoCode":"UTAA","airportName":"Ashgabat International Airport","city":"Ashgabat","country":"Turkmenistan","countryCode":"TM","type":"large_airport","scheduledService":true,"latitude":37.986801,"longitude":58.361,"keywords":"Saparmurat Turkmenbashy International Airport","score":1050},{"id":4332,"iataCode":"CAG","icaoCode":"LIEE","airportName":"Cagliari Elmas Airport","city":"Cagliari","country":"Italy","countryCode":"IT","type":"large_airport","scheduledService":true,"latitude":39.251499,"longitude":9.05428,"keywords":"Cagliari Airport,Elmas","score":1050},{"id":4318,"iataCode":"CTA","icaoCode":"LICC","airportName":"Catania-Fontanarossa Airport","city":"Catania","country":"Italy","countryCode":"IT","type":"large_airport","scheduledService":true,"latitude":37.466801,"longitude":15.0664,"keywords":"Lanza Di Trabie, Catania-Fontanarossa Vincenzo Bellini","score":1050},{"id":3082,"iataCode":"ACE","icaoCode":"GCRR","airportName":"César Manrique-Lanzarote Airport","city":"San Bartolomé","country":"Spain","countryCode":"ES","type":"large_airport","scheduledService":true,"latitude":28.945499,"longitude":-13.6052,"keywords":"Arrecife Airport","score":1050},{"id":27195,"iataCode":"CSX","icaoCode":"ZGHA","airportName":"Changsha Huanghua International Airport","city":"Changsha (Changsha)","country":"China","countryCode":"CN","type":"large_airport","scheduledService":true,"latitude":28.189199,"longitude":113.220001,"keywords":"长沙黄花国际机场","score":1050},{"id":26647,"iataCode":"CNX","icaoCode":"VTCC","airportName":"Chiang Mai International Airport","city":"Chiang Mai","country":"Thailand","countryCode":"TH","type":"large_airport","scheduledService":true,"latitude":18.766799926799997,"longitude":98.962600708,"keywords":"","score":1050},{"id":5303,"iataCode":"DAM","icaoCode":"OSDI","airportName":"Damascus International Airport","city":"Damascus","country":"Syria","countryCode":"SY","type":"large_airport","scheduledService":true,"latitude":33.4114990234375,"longitude":36.51559829711914,"keywords":"مطار دمشق الدولي","score":1050},{"id":5977,"iataCode":"SSA","icaoCode":"SBSV","airportName":"Deputado Luiz Eduardo Magalhães International Airport","city":"Salvador","country":"Brazil","countryCode":"BR","type":"large_airport","scheduledService":true,"latitude":-12.908611,"longitude":-38.322498,"keywords":"Dois de Julho","score":1050},{"id":3174,"iataCode":"JIB","icaoCode":"HDAM","airportName":"Djibouti-Ambouli Airport","city":"Djibouti City","country":"Djibouti","countryCode":"DJ","type":"large_airport","scheduledService":true,"latitude":11.5473,"longitude":43.1595,"keywords":"Camp Lemonnier","score":1050},{"id":5897,"iataCode":"MAO","icaoCode":"SBEG","airportName":"Eduardo Gomes International Airport","city":"Manaus","country":"Brazil","countryCode":"BR","type":"large_airport","scheduledService":true,"latitude":-3.03861,"longitude":-60.049702,"keywords":"","score":1050},{"id":4820,"iataCode":"SAL","icaoCode":"MSLP","airportName":"El Salvador International Airport Saint Óscar Arnulfo Romero y Galdámez","city":"San Salvador (San Luis Talpa)","country":"El Salvador","countryCode":"SV","type":"large_airport","scheduledService":true,"latitude":13.44447,"longitude":-89.055784,"keywords":"Monseñor Óscar Arnulfo Romero International Airport, Comalapa International Airport","score":1050},{"id":4226,"iataCode":"BSL","icaoCode":"LFSB","airportName":"EuroAirport Basel–Mulhouse–Freiburg","city":"Bâle / Mulhouse","country":"France","countryCode":"FR","type":"large_airport","scheduledService":true,"latitude":47.60068,"longitude":7.521117,"keywords":"MLH, EAP, LSZM, Bâle, Basle","score":1050},{"id":4979,"iataCode":"PPT","icaoCode":"NTAA","airportName":"Fa'a'ā International Airport","city":"Papeete","country":"French Polynesia","countryCode":"PF","type":"large_airport","scheduledService":true,"latitude":-17.553472,"longitude":-149.606936,"keywords":"","score":1050},{"id":3077,"iataCode":"FUE","icaoCode":"GCFV","airportName":"Fuerteventura Airport","city":"El Matorral","country":"Spain","countryCode":"ES","type":"large_airport","scheduledService":true,"latitude":28.4527,"longitude":-13.8638,"keywords":"","score":1050},{"id":6255,"iataCode":"BLA","icaoCode":"SVBC","airportName":"General José Antonio Anzoategui International Airport","city":"Barcelona","country":"Venezuela","countryCode":"VE","type":"large_airport","scheduledService":true,"latitude":10.111111,"longitude":-64.692222,"keywords":"Barcelona, Puero La Cruz,Lecheria","score":1050},{"id":4733,"iataCode":"MZT","icaoCode":"MMMZ","airportName":"General Rafael Buelna International Airport","city":"Mazatlàn","country":"Mexico","countryCode":"MX","type":"large_airport","scheduledService":true,"latitude":23.162823,"longitude":-106.264517,"keywords":"","score":1050},{"id":27196,"iataCode":"KWL","icaoCode":"ZGKL","airportName":"Guilin Liangjiang International Airport","city":"Guilin (Lingui)","country":"China","countryCode":"CN","type":"large_airport","scheduledService":true,"latitude":25.219828,"longitude":110.039553,"keywords":"","score":1050},{"id":27201,"iataCode":"HAK","icaoCode":"ZJHK","airportName":"Haikou Meilan International Airport","city":"Haikou (Meilan)","country":"China","countryCode":"CN","type":"large_airport","scheduledService":true,"latitude":19.9349,"longitude":110.459,"keywords":"ZGHK","score":1050},{"id":27218,"iataCode":"HGH","icaoCode":"ZSHC","airportName":"Hangzhou Xiaoshan International Airport","city":"Hangzhou","country":"China","countryCode":"CN","type":"large_airport","scheduledService":true,"latitude":30.23609,"longitude":120.428865,"keywords":"Hang Zhou, 杭州萧山国际机场","score":1050},{"id":6404,"iataCode":"CUR","icaoCode":"TNCC","airportName":"Hato International Airport","city":"Willemstad","country":"Curaçao","countryCode":"CW","type":"large_airport","scheduledService":true,"latitude":12.1889,"longitude":-68.959801,"keywords":"Curaçao","score":1050},{"id":26534,"iataCode":"DAC","icaoCode":"VGHS","airportName":"Hazrat Shahjalal International Airport","city":"Dhaka","country":"Bangladesh","countryCode":"BD","type":"large_airport","scheduledService":true,"latitude":23.843347,"longitude":90.397783,"keywords":"VGZR, Zia International Airport, Dacca International Airport, Hazrat Shahjalal International Airport","score":1050},{"id":3039,"iataCode":"WDH","icaoCode":"FYWH","airportName":"Hosea Kutako International Airport","city":"Windhoek","country":"Namibia","countryCode":"NA","type":"large_airport","scheduledService":true,"latitude":-22.4799,"longitude":17.4709,"keywords":"J.G. Strijdom Airport","score":1050},{"id":4013,"iataCode":"IBZ","icaoCode":"LEIB","airportName":"Ibiza Airport","city":"Ibiza (Eivissa)","country":"Spain","countryCode":"ES","type":"large_airport","scheduledService":true,"latitude":38.872898,"longitude":1.37312,"keywords":"","score":1050},{"id":4341,"iataCode":"BGY","icaoCode":"LIME","airportName":"Il Caravaggio International Airport","city":"Orio al Serio (BG)","country":"Italy","countryCode":"IT","type":"large_airport","scheduledService":true,"latitude":45.669362,"longitude":9.708851,"keywords":"Orio al Serio International Airport, Il Caravaggio International Airport, Milan Bergamo Airport","score":1050},{"id":2908,"iataCode":"TNR","icaoCode":"FMMI","airportName":"Ivato International Airport","city":"Antananarivo","country":"Madagascar","countryCode":"MG","type":"large_airport","scheduledService":true,"latitude":-18.7969,"longitude":47.478802,"keywords":"","score":1050},{"id":27219,"iataCode":"TNA","icaoCode":"ZSJN","airportName":"Jinan Yaoqiang International Airport","city":"Jinan (Licheng)","country":"China","countryCode":"CN","type":"large_airport","scheduledService":true,"latitude":36.857201,"longitude":117.216003,"keywords":"","score":1050},{"id":5255,"iataCode":"KHI","icaoCode":"OPKC","airportName":"Jinnah International Airport","city":"Karachi","country":"Pakistan","countryCode":"PK","type":"large_airport","scheduledService":true,"latitude":24.9065,"longitude":67.160797,"keywords":"OPQR, OPHQ, Drigh Road Airstrip, Quaid-E-Azam International Airport","score":1050},{"id":6195,"iataCode":"PBM","icaoCode":"SMJP","airportName":"Johan Adolf Pengel International Airport","city":"Paramaribo","country":"Suriname","countryCode":"SR","type":"large_airport","scheduledService":true,"latitude":5.45283,"longitude":-55.187801,"keywords":"Zandery, Zanderij, JAP International Airport, JAPI Airport, JAPIA, ZY Airport","score":1050},{"id":6217,"iataCode":"LIM","icaoCode":"SPJC","airportName":"Jorge Chávez International Airport","city":"Lima","country":"Peru","countryCode":"PE","type":"large_airport","scheduledService":true,"latitude":-12.0219,"longitude":-77.114305,"keywords":"SPIM","score":1050},{"id":6056,"iataCode":"GYE","icaoCode":"SEGU","airportName":"José Joaquín de Olmedo International Airport","city":"Guayaquil","country":"Ecuador","countryCode":"EC","type":"large_airport","scheduledService":true,"latitude":-2.15742,"longitude":-79.883598,"keywords":"Simon Bolivar International Airport","score":1050},{"id":3251,"iataCode":"DAR","icaoCode":"HTDA","airportName":"Julius Nyerere International Airport","city":"Dar es Salaam","country":"Tanzania","countryCode":"TZ","type":"large_airport","scheduledService":true,"latitude":-6.873499,"longitude":39.207288,"keywords":"HTJN, Mwalimu Julius K. Nyerere, Dar es Salaam International Airport","score":1050},{"id":2894,"iataCode":"LUN","icaoCode":"FLKK","airportName":"Kenneth Kaunda International Airport","city":"Lusaka","country":"Zambia","countryCode":"ZM","type":"large_airport","scheduledService":true,"latitude":-15.330833,"longitude":28.452722,"keywords":"","score":1050},{"id":3237,"iataCode":"KGL","icaoCode":"HRYR","airportName":"Kigali International Airport","city":"Kigali","country":"Rwanda","countryCode":"RW","type":"large_airport","scheduledService":true,"latitude":-1.96863,"longitude":30.1395,"keywords":"Gregoire Kayibanda International Airport, Kanombe International Airport","score":1050},{"id":2090,"iataCode":"ACC","icaoCode":"DGAA","airportName":"Kotoka International Airport","city":"Accra","country":"Ghana","countryCode":"GH","type":"large_airport","scheduledService":true,"latitude":5.605189800262451,"longitude":-0.16678600013256073,"keywords":"","score":1050},{"id":4644,"iataCode":"GUA","icaoCode":"MGGT","airportName":"La Aurora International Airport","city":"Guatemala City","country":"Guatemala","countryCode":"GT","type":"large_airport","scheduledService":true,"latitude":14.582896,"longitude":-90.527515,"keywords":"","score":1050},{"id":4386,"iataCode":"LJU","icaoCode":"LJLJ","airportName":"Ljubljana Jože Pučnik Airport","city":"Zgornji Brnik","country":"Slovenia","countryCode":"SI","type":"large_airport","scheduledService":true,"latitude":46.223701,"longitude":14.4576,"keywords":"Ljubljana, Kranj","score":1050},{"id":4951,"iataCode":"NAS","icaoCode":"MYNN","airportName":"Lynden Pindling International Airport","city":"Nassau","country":"Bahamas","countryCode":"BS","type":"large_airport","scheduledService":true,"latitude":25.039,"longitude":-77.466202,"keywords":"Windsor Field, Nassau International Airport","score":1050},{"id":26727,"iataCode":"MDL","icaoCode":"VYMD","airportName":"Mandalay International Airport","city":"Mandalay","country":"Myanmar","countryCode":"MM","type":"large_airport","scheduledService":true,"latitude":21.702199935913086,"longitude":95.97789764404297,"keywords":"","score":1050},{"id":2975,"iataCode":"MPM","icaoCode":"FQMA","airportName":"Maputo Airport","city":"Maputo","country":"Mozambique","countryCode":"MZ","type":"large_airport","scheduledService":true,"latitude":-25.920799,"longitude":32.572601,"keywords":"","score":1050},{"id":6363,"iataCode":"FDF","icaoCode":"TFFF","airportName":"Martinique Aimé Césaire International Airport","city":"Fort-de-France","country":"Martinique","countryCode":"MQ","type":"large_airport","scheduledService":true,"latitude":14.591,"longitude":-61.003201,"keywords":"Le Lamentin Airport","score":1050},{"id":6366,"iataCode":"PTP","icaoCode":"TFFR","airportName":"Maryse Condé International Airport","city":"Pointe-à-Pitre","country":"Guadeloupe","countryCode":"GP","type":"large_airport","scheduledService":true,"latitude":16.265443,"longitude":-61.532754,"keywords":"Le Raizet, Les Abymes","score":1050},{"id":3066,"iataCode":"BKO","icaoCode":"GABS","airportName":"Modibo Keita International Airport","city":"Bamako","country":"Mali","countryCode":"ML","type":"large_airport","scheduledService":true,"latitude":12.5335,"longitude":-7.94994,"keywords":"Senou Airport","score":1050},{"id":3213,"iataCode":"MBA","icaoCode":"HKMO","airportName":"Moi International Airport","city":"Mombasa","country":"Kenya","countryCode":"KE","type":"large_airport","scheduledService":true,"latitude":-4.03483,"longitude":39.5942,"keywords":"Mombasa, Port Reitz","score":1050},{"id":2998,"iataCode":"NDJ","icaoCode":"FTTJ","airportName":"N'Djamena International Airport","city":"N'Djamena","country":"Chad","countryCode":"TD","type":"large_airport","scheduledService":true,"latitude":12.1337,"longitude":15.034,"keywords":"Ndjamena Hassan Djamous","score":1050},{"id":3040,"iataCode":"FIH","icaoCode":"FZAA","airportName":"Ndjili International Airport","city":"Kinshasa","country":"Democratic Republic of the Congo","countryCode":"CD","type":"large_airport","scheduledService":true,"latitude":-4.38575,"longitude":15.4446,"keywords":"","score":1050},{"id":4680,"iataCode":"KIN","icaoCode":"MKJP","airportName":"Norman Manley International Airport","city":"Kingston","country":"Jamaica","countryCode":"JM","type":"large_airport","scheduledService":true,"latitude":17.935699462890625,"longitude":-76.7874984741211,"keywords":"","score":1050},{"id":26674,"iataCode":"HKT","icaoCode":"VTSP","airportName":"Phuket International Airport","city":"Phuket","country":"Thailand","countryCode":"TH","type":"large_airport","scheduledService":true,"latitude":8.113257,"longitude":98.3174,"keywords":"","score":1050},{"id":1864,"iataCode":"YQB","icaoCode":"CYQB","airportName":"Quebec Jean Lesage International Airport","city":"Quebec","country":"Canada","countryCode":"CA","type":"large_airport","scheduledService":true,"latitude":46.7911,"longitude":-71.393303,"keywords":"Quebec City","score":1050},{"id":6402,"iataCode":"AUA","icaoCode":"TNCA","airportName":"Queen Beatrix International Airport","city":"Oranjestad","country":"Aruba","countryCode":"AW","type":"large_airport","scheduledService":true,"latitude":12.501056,"longitude":-70.014281,"keywords":"Playa, Dakota Field","score":1050},{"id":3853,"iataCode":"RNO","icaoCode":"KRNO","airportName":"Reno Tahoe International Airport","city":"Reno","country":"United States","countryCode":"US","type":"large_airport","scheduledService":true,"latitude":39.4991,"longitude":-119.767998,"keywords":"","score":1050},{"id":3795,"iataCode":"PVD","icaoCode":"KPVD","airportName":"Rhode Island T. F. Green International Airport","city":"Providence/Warwick","country":"United States","countryCode":"US","type":"large_airport","scheduledService":true,"latitude":41.725038,"longitude":-71.425668,"keywords":"","score":1050},{"id":3005,"iataCode":"HRE","icaoCode":"FVRG","airportName":"Robert Gabriel Mugabe International Airport","city":"Harare","country":"Zimbabwe","countryCode":"ZW","type":"large_airport","scheduledService":true,"latitude":-17.931801,"longitude":31.0928,"keywords":"FVHA, Harare","score":1050},{"id":2905,"iataCode":"RUN","icaoCode":"FMEE","airportName":"Roland Garros Airport","city":"Sainte-Marie","country":"Réunion","countryCode":"RE","type":"large_airport","scheduledService":true,"latitude":-20.890087,"longitude":55.518894,"keywords":"Gillot Airport","score":1050},{"id":2993,"iataCode":"SEZ","icaoCode":"FSIA","airportName":"Seychelles International Airport","city":"Victoria","country":"Seychelles","countryCode":"SC","type":"large_airport","scheduledService":true,"latitude":-4.67434,"longitude":55.521801,"keywords":"Aéroport de la Pointe Larue, Point La Rue, Point Larue, Mahé Island","score":1050},{"id":5239,"iataCode":"SHJ","icaoCode":"OMSJ","airportName":"Sharjah International Airport","city":"Sharjah","country":"United Arab Emirates","countryCode":"AE","type":"large_airport","scheduledService":true,"latitude":25.3286,"longitude":55.5172,"keywords":"","score":1050},{"id":3198,"iataCode":"SSH","icaoCode":"HESH","airportName":"Sharm El Sheikh International Airport","city":"Sharm El Sheikh","country":"Egypt","countryCode":"EG","type":"large_airport","scheduledService":true,"latitude":27.977272,"longitude":34.394717,"keywords":"","score":1050},{"id":27243,"iataCode":"SHE","icaoCode":"ZYTX","airportName":"Shenyang Taoxian International Airport","city":"Shenyang","country":"China","countryCode":"CN","type":"large_airport","scheduledService":true,"latitude":41.6398,"longitude":123.483668,"keywords":"沈阳, 沈阳桃仙国际机场","score":1050},{"id":4573,"iataCode":"SKP","icaoCode":"LWSK","airportName":"Skopje International Airport","city":"Ilinden","country":"North Macedonia","countryCode":"MK","type":"large_airport","scheduledService":true,"latitude":41.958087,"longitude":21.622581,"keywords":"Petrovec","score":1050},{"id":27193,"iataCode":"TYN","icaoCode":"ZBYN","airportName":"Taiyuan Wusu International Airport","city":"Taiyuan","country":"China","countryCode":"CN","type":"large_airport","scheduledService":true,"latitude":37.746899,"longitude":112.627998,"keywords":"","score":1050},{"id":26629,"iataCode":"TRV","icaoCode":"VOTV","airportName":"Thiruvananthapuram International Airport","city":"Thiruvananthapuram","country":"India","countryCode":"IN","type":"large_airport","scheduledService":true,"latitude":8.481889,"longitude":76.920029,"keywords":"Thiruvananthapuram International Airport, Trivandrum Air Force Station","score":1050},{"id":27192,"iataCode":"TSN","icaoCode":"ZBTJ","airportName":"Tianjin Binhai International Airport","city":"Tianjin","country":"China","countryCode":"CN","type":"large_airport","scheduledService":true,"latitude":39.124401092499994,"longitude":117.346000671,"keywords":"","score":1050},{"id":4793,"iataCode":"PTY","icaoCode":"MPTO","airportName":"Tocumen International Airport","city":"Tocumen","country":"Panama","countryCode":"PA","type":"large_airport","scheduledService":true,"latitude":9.07136,"longitude":-79.383499,"keywords":"La Joya No 1","score":1050},{"id":2599,"iataCode":"TOS","icaoCode":"ENTC","airportName":"Tromsø Airport","city":"Tromsø","country":"Norway","countryCode":"NO","type":"large_airport","scheduledService":true,"latitude":69.683296,"longitude":18.9189,"keywords":"Langnes, Tromsøya, Tromso","score":1050},{"id":5867,"iataCode":"BEL","icaoCode":"SBBE","airportName":"Val de Cans/Júlio Cezar Ribeiro International Airport","city":"Belém","country":"Brazil","countryCode":"BR","type":"large_airport","scheduledService":true,"latitude":-1.379279,"longitude":-48.476207,"keywords":"","score":1050},{"id":26636,"iataCode":"MLE","icaoCode":"VRMM","airportName":"Velana International Airport","city":"Malé","country":"Maldives","countryCode":"MV","type":"large_airport","scheduledService":true,"latitude":4.19183,"longitude":73.529099,"keywords":"Malé International Airport","score":1050},